id,title,address,town,state,postcode,country,lat,lon,operator,status,num_connectors,connector_types,date_added
462769,Electra - Wambrechies - Volfoni,81 Av. Clément Ader,Wambrechies,,59118,FR,50.6856527479799,3.0624104228837723,Electra,Operational,2,CCS (Type 2)|Type 2 (Socket Only),2025-11-02 09:58:00+00:00
462768,Electra - Tourcoing - Action,185 rue du Touquet,Tourcoing,,59200,FR,50.723170847779386,3.1806363703025227,Electra,Operational,3,CCS (Type 2)|CHAdeMO|Type 2 (Socket Only),2025-11-02 09:55:00+00:00
462767,Electra - Bondues - Sure Hotel by Best Western Lille Tourcoing,3 Av. Henri Becquerel,Bondues,,59910,FR,50.722535304716985,3.1294960074308165,Electra,Operational,2,CCS (Type 2)|Type 2 (Socket Only),2025-11-02 09:50:00+00:00
462766,Electra - Bousbecque - Intermarché,Rue Auger,Bousbecque,,59166,FR,50.77013919273634,3.0834544961079473,Electra,Operational,2,CCS (Type 2)|Type 2 (Socket Only),2025-11-02 09:46:00+00:00
462765,Electra - Halluin - Intermarché,Boulevard de Roncq,Halluin,,59250,FR,50.769938069594645,3.1240298745922246,Electra,Operational,2,CCS (Type 2)|Type 2 (Socket Only),2025-11-02 09:42:00+00:00
462763,Ayunt. El Palau d'Anglesola,El Palau d'Anglesola,El Palau d'Anglesola,,,ES,41.6485021075361,0.8768075184850659,eTecnic,Operational,1,Type 2 (Socket Only),2025-11-02 07:14:00+00:00
462762,Energia Nufri,Mollerusa,Mollerusa,,,ES,41.640456638661874,0.8866282164026416,eTecnic,Operational,1,CCS (Type 2),2025-11-02 07:08:00+00:00
462761,Hotel Jardí,Mollerusa,Mollerusa,,,ES,41.631459017537054,0.896504733154643,(Business Owner at Location),Operational,1,Type 2 (Socket Only),2025-11-02 07:05:00+00:00
462760,Ayunt. Miralcamp,Miralcamp,Miralcamp,,,ES,41.606142794580705,0.881104052848741,eTecnic,Operational,1,Type 2 (Socket Only),2025-11-02 07:01:00+00:00
462759,Ayunt. Arbeca,Arbeca,Arbeca,,,ES,41.542112663876,0.924948337314845,eTecnic,Operational,1,Type 2 (Socket Only),2025-11-02 06:59:00+00:00
462744,Electra - Fouquières-les-Bethune - Boulangerie,Zone actipolis,Fouquières-les-Bethune,,62232,FR,50.511587298815414,2.6209277841594485,Electra,Operational,2,CCS (Type 2)|Type 2 (Socket Only),2025-11-02 00:06:00+00:00
462743,Electra - Le Touquet-Paris-Plage - Hôtel Ibis,4 avenue Louison Bobet,Le Touquet-Paris-Plage,,62520,FR,50.51602001141006,1.5787738531715831,Electra,Operational,2,CCS (Type 2)|Type 2 (Socket Only),2025-11-02 00:00:00+00:00
462742,Electra - Calais - Burger King,124 avenue Antoine de Saint-Exupéry,Calais,,62100,FR,50.94549670693155,1.8981091240312935,Electra,Operational,2,CCS (Type 2)|Type 2 (Socket Only),2025-11-01 23:53:00+00:00
462735,Hotel B&B Tarragona Valls,Valls,Valls,,,ES,41.299308869916615,1.2615383473532802,(Business Owner at Location),Operational,1,Type 2 (Socket Only),2025-11-01 19:34:00+00:00
462734,Tesla Supercharger Sévérac-d'Aveyron,Aire de l'Aveyron,Sévérac-d'Aveyron,,12150,FR,44.32906284511972,3.0803441121574906,Tesla (including non-tesla),Operational,1,CCS (Type 2),2025-11-01 19:30:00+00:00
462733,Tesla Supercharger Sanilhac,CréaVallée Sud la Couture,Sanilhac,,24660,FR,45.13601896888832,0.7006117079748719,Tesla (including non-tesla),Operational,1,CCS (Type 2),2025-11-01 19:27:00+00:00
462732,Tesla Supercharger Ruffec,Lieudit « Champ de barbe jaune »,Ruffec,,16700,FR,46.03459569181399,0.1802318514060061,Tesla (including non-tesla),Operational,1,CCS (Type 2),2025-11-01 19:20:00+00:00
462731,Tesla Supercharger Lagord,Avenue du Fief Rose,Lagord,,17140,FR,46.17485879524952,-1.1701379426496032,Tesla (including non-tesla),Operational,1,CCS (Type 2),2025-11-01 19:15:00+00:00
462730,Cavas Pares Balta,Penedes,Penedes,,,ES,41.369095042729526,1.6558776364411187,(Business Owner at Location),Operational,1,Type 2 (Socket Only),2025-11-01 19:14:00+00:00
462729,Tesla Supercharger Porto-Vecchio,T10,Porto-Vecchio,,20137,FR,41.57086650689254,9.273782448109388,Tesla (including non-tesla),Operational,1,CCS (Type 2),2025-11-01 19:12:00+00:00
462728,Tesla Supercharger Magnant,D443,Magnant,,10110,FR,48.1807124359153,4.434366644283614,Tesla (including non-tesla),Operational,1,CCS (Type 2),2025-11-01 18:55:00+00:00
462727,Tesla Supercharger Les Sables-d'Olonne,87 Av. Francois Mitterrand,Les Sables-d'Olonne,,85340,FR,46.51376963361935,-1.7770465726061957,Tesla (including non-tesla),Operational,1,CCS (Type 2),2025-11-01 18:52:00+00:00
462726,Tesla Supercharger Falaise,2 rue Louis Rochet,Falaise,,14700,FR,48.9073067633619,-0.2069726228851323,Tesla (including non-tesla),Operational,1,CCS (Type 2),2025-11-01 18:49:00+00:00
462725,Tesla Supercharger Artix,51 Rue des Écureuils,Artix,,64170,FR,43.39285785077698,-0.5553973636018554,Tesla (including non-tesla),Operational,1,CCS (Type 2),2025-11-01 18:41:00+00:00
462724,Tesla Supercharger Agde,Bd Maurice Pacul,Agde,,34300,FR,43.29842920680102,3.472309232591897,Tesla (including non-tesla),Operational,1,CCS (Type 2),2025-11-01 18:37:00+00:00
462722,Ayunt. Albinyana,Les Peces,Lalbinyana,,,ES,41.252653951048586,1.503785094817772,(Unknown Operator),Operational,1,Type 2 (Socket Only),2025-11-01 18:12:00+00:00
462721,Tesla Supercharger Aix-en-Provence - Beaumanoir,Rue Marcel Arnaud,Aix-en-Provence,,13100,FR,43.513584144104584,5.466918055071346,Tesla (including non-tesla),Operational,1,CCS (Type 2),2025-11-01 18:02:00+00:00
462720,Ayunt. Vilabella,Vilabella,Vilabella,,,ES,41.24847535929064,1.3307544213976144,eTecnic,Operational,1,Type 2 (Socket Only),2025-11-01 17:50:00+00:00
462719,Ayunt. Salomó,Salomó,Salomó,,,ES,41.23005988769325,1.376109386752546,eTecnic,Operational,1,Type 2 (Socket Only),2025-11-01 17:49:00+00:00
462718,Ayunt. La Nou de Gaià,La Nou de Gaià,La Nou de Gaià,,,ES,41.181981897314415,1.3732790332641116,eTecnic,Operational,1,Type 2 (Socket Only),2025-11-01 17:48:00+00:00
462717,Camping Las Palmeras Zona Bungalows,Solimar,Tarragona,,,ES,41.13052895776218,1.318220638497678,(Business Owner at Location),Operational,1,Type 2 (Socket Only),2025-11-01 17:46:00+00:00
462716,Ayunt. Els Pallaresos,Els Pallaresos,Els Pallaresos,,,ES,41.16836904425389,1.2741055846042857,(Unknown Operator),Operational,1,Type 2 (Socket Only),2025-11-01 17:44:00+00:00
462715,Repsol Petroleo Visitantes,Tarragona,Tarragona,,,ES,41.17189095625409,1.2264916359336553,Repsol - Ibil (ES),Operational,1,Type 2 (Socket Only),2025-11-01 17:42:00+00:00
462714,Ayto. Vilallonga del Camp,Vilallonga del Camp,Vilallonga del Camp,,,ES,41.208907125106464,1.2033020639570395,eTecnic,Operational,1,Type 2 (Socket Only),2025-11-01 17:39:00+00:00
462713,Ayunt. d'El Pla de Santa Maria,El Pla de Santa Maria,El Pla de Santa Maria,,,ES,41.36567800553598,1.2883674221168349,(Unknown Operator),Operational,1,Type 2 (Socket Only),2025-11-01 17:36:00+00:00
462712,Ayunt. d'El Pla de Santa Maria - Piscina Municipal,Ayunt. d'El Pla de Santa Maria,Ayunt. d'El Pla de Santa Maria,,,ES,41.363112829270534,1.2926158859520456,(Unknown Operator),Operational,1,Type 2 (Socket Only),2025-11-01 17:35:00+00:00
462710,El Pont d'Armentera,El Pont d'Armentera,El Pont d'Armentera,,,ES,41.384075227782205,1.3629282492947823,(Unknown Operator),Operational,1,Type 2 (Socket Only),2025-11-01 17:32:00+00:00
462709,Ayunt. Blancafort Piscina Municipal,Blancafort,Blancafort,,,ES,41.439855108619355,1.1591714786642342,eTecnic,Operational,1,Type 2 (Socket Only),2025-11-01 17:30:00+00:00
462703,Enel Conad,Strada Malagoli 23,Reggiolo,RE,,IT,44.917512,10.798907,Enel X,Operational,1,CCS (Type 2),2025-11-01 14:50:00+00:00
462702,Tesla Supercharger Valence Sud - Chemin de la Sonacotral,97 Chemin de la Sonacotral,Valence,,26000,FR,44.90361631160624,4.879962490338016,Tesla (including non-tesla),Operational,1,CCS (Type 2),2025-11-01 14:42:00+00:00
462701,Parking Torroja Tarragona,Tarragona,Tarragona,,,ES,41.12064322509218,1.2618287643850865,(Business Owner at Location),Operational,1,Type 2 (Socket Only),2025-11-01 11:52:00+00:00
462700,Interparking Hispania URV,Tarragona,Tarragona,,,ES,41.12321631788669,1.2496752369665955,(Business Owner at Location),Operational,1,Type 2 (Socket Only),2025-11-01 11:48:00+00:00
462698,Puerto Deportivo Tarragona,Tarragona,Tarragona,,,ES,41.10818354878461,1.251044179109499,Electromaps,Operational,2,Type 2 (Socket Only)|CEE 7/4 - Schuko - Type F,2025-11-01 11:40:00+00:00
462697,Puerto Deportivo Tarragona,Tarragona,Tarragona,,,ES,41.10942193537505,1.253384966493968,Electromaps,Operational,1,Type 2 (Socket Only),2025-11-01 11:39:00+00:00
462696,BP Pulse Servon Eden,ZAC du Noyer aux Perdrix,Servon,,77170,FR,48.706346079126774,2.584012577409453,BP Pulse (UK),Operational,2,CCS (Type 2)|CCS (Type 2),2025-11-01 09:39:00+00:00
462695,Leroy Merlín Tarragona,Tarragona,Tarragona,,,ES,41.13073933505083,1.2037605526634252,Iberdrola | BP Pulse (ES),Operational,1,Type 2 (Tethered Connector) ,2025-11-01 08:29:00+00:00
462694,BMW Oliva Motor,Tarragona,Tarragona,,,ES,41.13021560081111,1.1990122493393756,(Business Owner at Location),Operational,1,Type 2 (Socket Only),2025-11-01 08:17:00+00:00
462665,Hotel Palas Pineda II,Salou,Salou,,,ES,41.06786304529865,1.175799890088456,(Business Owner at Location),Operational,1,Type 2 (Socket Only),2025-10-31 19:52:00+00:00
462664,Centro Deportivo Salou,Salou,Salou,,,ES,41.080708767500056,1.165519856062815,Electromaps,Operational,1,Type 2 (Socket Only),2025-10-31 19:49:00+00:00
462662,Ayunt. Tivenys,Tivenys,Tivenys,,,ES,40.90642522861418,0.512323745933486,(Unknown Operator),Operational,1,Type 2 (Socket Only),2025-10-31 19:13:00+00:00
462661,Alcampo Tortosa,Tortosa,Tortosa,,,ES,40.81895354068928,0.5140867289396738,Iberdrola | BP Pulse (ES),Operational,1,Type 2 (Tethered Connector) ,2025-10-31 18:46:00+00:00
462660,Aldi Deltebre,Deltebre,Deltebre,,,ES,40.723304500981186,0.7229359432240017,ALDI SÜD (DE),Operational,1,Type 2 (Socket Only),2025-10-31 18:02:00+00:00
462659,E.S. BonArea Deltebre,Deltebre,Deltebre,,,ES,40.72352736543914,0.7250824063530672,Iberdrola | BP Pulse (ES),Planned For Future Date,2,CCS (Type 2)|Type 2 (Tethered Connector) ,2025-10-31 18:00:00+00:00
462658,Area di Servizio San Liberato,E45 dir Orte,Montoro,,,IT,40.82299968039658,14.807181717922049,Electrip,Operational,1,CCS (Type 2),2025-10-31 16:52:00+00:00
462657,Camping Alfacs,Montsiá Mar,Montsiá Mar,,,ES,40.595201662290094,0.5704125058273348,(Business Owner at Location),Operational,1,Type 2 (Socket Only),2025-10-31 16:28:00+00:00
462656,Tokmanni Klaukkala,Viirintie 8,Klaukkala,,01800,FI,60.378759470852145,24.76032858156134,Plugit,Operational,2,CCS (Type 2)|Type 2 (Socket Only),2025-10-31 16:17:00+00:00
462654,K-Supermarket Nurmijärvi,Mahlamäentie 2,Nurmijärvi,Uusimaa,01900,FI,60.46222866467701,24.810621526047385,K Lataus,Operational,2,CCS (Type 2)|Type 2 (Socket Only),2025-10-31 16:11:00+00:00
462653,Lidl Benicarló,Benicarló,Benicarló,,,ES,40.42413136322992,0.4159248759381171,Lidl,Operational,1,Type 2 (Socket Only),2025-10-31 16:09:00+00:00
462652,Neste Nurmijärvi Myllykukko,Ilvesvuorenkatu 2,Nurmijärvi,Uusimaa,01900,FI,60.45526894003214,24.843215135232413,Neste Lataus,Operational,1,CCS (Type 2),2025-10-31 16:08:00+00:00
462650,Neste Alikeravantie,Alikeravantie 25,Kerava,Uusimaa,04250,FI,60.39483954417514,25.110440902901473,Neste Lataus,Operational,1,CCS (Type 2),2025-10-31 16:01:00+00:00
462649,Apartamentos Els Romers,Benicarló,Benicarló,,,ES,40.40315015761695,0.4180349815369482,Electromaps,Operational,1,Type 2 (Socket Only),2025-10-31 16:00:00+00:00
462648,Lidl Kerava,Santaniitynkatu 7,Kerava,Uusimaa,04250,FI,60.39969473826966,25.111991158573577,Lidl,Operational,3,CCS (Type 2)|CHAdeMO|Type 2 (Tethered Connector) ,2025-10-31 16:00:00+00:00
462646,Plugit Prisma Kerava,Kauppakaari 2,Kerava,Uusimaa,04200,FI,60.40153500878972,25.1033947035844,Plugit,Operational,1,Type 2 (Socket Only),2025-10-31 15:56:00+00:00
462645,Prisma Kerava,Kauppakaari 2,Kerava,Uusimaa,04200,FI,60.401385233305206,25.102481588570072,ABC Lataus (FI),Operational,3,CCS (Type 2)|Type 2 (Socket Only)|CHAdeMO,2025-10-31 15:55:00+00:00
462644,Parking Peñíscola Norte,Peñíscola,Peñíscola,,,ES,40.39426958762684,0.409321988374586,Electromaps,Operational,1,Type 2 (Socket Only),2025-10-31 15:54:00+00:00
462642,Hotel RH Casablanca,Peñíscola,Peñíscola,,,ES,40.38911162451916,0.4108252390572033,(Business Owner at Location),Operational,1,Type 2 (Socket Only),2025-10-31 15:50:00+00:00
462641,Hotel Peñíscola Palace,Peñíscola,Peñíscola,,,ES,40.3734278855475,0.4053089667518179,(Business Owner at Location),Operational,1,Type 2 (Socket Only),2025-10-31 15:48:00+00:00
462636,Rykmentinpuiston koulu ja päiväkoti,Puustellinniitynkaari 2,Tuusula,Uusimaa,04310,FI,60.396878340217,25.046152731227608,VIRTA,Operational,1,Type 2 (Socket Only),2025-10-31 15:42:00+00:00
462634,Hotel Agora,Peñíscola,Peñíscola,,,ES,40.35763726254035,0.3983377131980887,Electromaps,Operational,1,Type 2 (Socket Only),2025-10-31 15:40:00+00:00
462633,S-Market Hyrylä,Hyrylänkatu 6,Tuusula,Uusimaa,04300,FI,60.39718893526165,25.019503076406295,ABC Lataus (FI),Operational,3,CHAdeMO|CCS (Type 2)|Type 2 (Socket Only),2025-10-31 15:39:00+00:00
462629,Hotel Servigroup Romana,Alcocéber,Alcocéber,,,ES,40.236649295080014,0.272311296136877,(Business Owner at Location),Operational,1,Type 2 (Socket Only),2025-10-31 15:31:00+00:00
462627,Ayunt. Torreblanca,Torreblanca,Torreblanca,,,ES,40.19880261330272,0.2287963013158105,Qwello,Operational,1,Type 2 (Socket Only),2025-10-31 15:28:00+00:00
462626,K-Supermarket Peltola,Vehnätie 2,Järvenpää,Uusimaa,04410,FI,60.49225949922891,25.093164417785943,K Lataus,Operational,2,CCS (Type 2)|Type 2 (Socket Only),2025-10-31 15:27:00+00:00
462625,Ayunt. Torreblanca. Torrenostra,Torreblanca,Torreblanca,,,ES,40.197620275403665,0.2215043392916413,Qwello,Operational,1,Type 2 (Socket Only),2025-10-31 15:27:00+00:00
462624,Ayunt. Torreblanca,Torreblanca,Torreblanca,,,ES,40.2215460919997,0.1992112280004221,Qwello,Operational,1,CCS (Type 2),2025-10-31 15:23:00+00:00
462622,Ayunt. Torreblanca,Torreblanca,Torreblanca,,,ES,40.22006543434031,0.1955389483416638,Qwello,Operational,1,Type 2 (Socket Only),2025-10-31 15:18:00+00:00
462621,Camping Riberamar,Oropesa,Oropesa,,,ES,40.12494697912962,0.1568168173463391,ChargeGuru,Operational,1,Type 2 (Tethered Connector) ,2025-10-31 15:14:00+00:00
462620,Roinilan päiväkoti,Nystenintie 6,Savikulma,Uusimaa,04500,FI,60.532625524879194,25.115212230365614,VIRTA,Operational,1,Type 2 (Socket Only),2025-10-31 15:12:00+00:00
462619,Torpparin Päiväkoti,Ampujantie 1,Kellokoski,Uusimaa,04500,FI,60.525103,25.09787600000004,VIRTA,Operational,1,Type 2 (Socket Only),2025-10-31 15:08:00+00:00
462618,Hotel Voromar,Benicassim,Benicassim,,,ES,40.05742495974215,0.0848165389461428,(Business Owner at Location),Operational,1,Type 2 (Socket Only),2025-10-31 15:05:00+00:00
462617,K-Supermarket Kellokoski,Vanha valtatie 189,Tuusula,Uusimaa,04500,FI,60.53079929762103,25.11022061906749,K Lataus,Operational,3,CCS (Type 2)|CHAdeMO|Type 2 (Socket Only),2025-10-31 15:04:00+00:00
462605,McDonalds Castellón,Castellón,Castellón,,,ES,39.99971334260056,-0.0406237368173378,Endesa,Operational,1,CCS (Type 2),2025-10-31 09:02:00+00:00
462604,Hotel Doña Lola,Castellón,Castellón,,,ES,39.98671255808733,-0.0473897792603565,(Business Owner at Location),Operational,1,Type 2 (Socket Only),2025-10-31 08:58:00+00:00
462558,Mercadona Moncófar,Moncófar,Moncófar,,,ES,39.805234689735585,-0.1411137160351927,Mercadona,Operational,1,Type 2 (Socket Only),2025-10-30 20:15:00+00:00
462554,Ayunt. Rafelbuñol,Rafelbuñol,Rafelbuñol,,,ES,39.59188976170137,-0.3346534556063716,Iberdrola | BP Pulse (ES),Operational,1,Type 2 (Socket Only),2025-10-30 18:42:00+00:00
462550,Ayunt. Valencia. Ramón Llull,Valencia,Valencia,,,ES,39.47649720524086,-0.3466249050799206,Iberdrola | BP Pulse (ES),Operational,1,Type 2 (Socket Only),2025-10-30 14:57:00+00:00
462549,Residencia Universitaria Damiá Bonet,Valencia,Valencia,,,ES,39.47554242166484,-0.344359464438071,(Business Owner at Location),Operational,1,Type 2 (Socket Only),2025-10-30 14:56:00+00:00
462548,Notel Barceló Valencia,Valencia,Valencia,,,ES,39.461361589796354,-0.3522637798062078,(Business Owner at Location),Operational,1,Type 2 (Socket Only),2025-10-30 14:46:00+00:00
462547,Parking Alameda,Valencia,Valencia,,,ES,39.46533038790184,-0.358779067264436,(Business Owner at Location),Operational,1,Type 2 (Socket Only),2025-10-30 14:44:00+00:00
462546,Ayunt. Valencia. Ava. Blasco Ibañez,Valencia,Valencia,,,ES,39.47779109518552,-0.3623292704761525,Iberdrola | BP Pulse (ES),Operational,1,Type 2 (Socket Only),2025-10-30 14:36:00+00:00
462545,Parking Valencia Centro,Valencia,Valencia,,,ES,39.46862269640732,-0.3681577015412358,(Business Owner at Location),Operational,4,CCS (Type 2)|CHAdeMO|Type 2 (Tethered Connector) |Type 2 (Socket Only),2025-10-30 14:23:00+00:00
462542,Parking Valeman,Valencia,Valencia,,,ES,39.4670210975726,-0.3635002674599263,(Business Owner at Location),Operational,1,Type 2 (Socket Only),2025-10-30 14:05:00+00:00
462541,Parking Oceanografic,Valencia,Valencia,,,ES,39.45224260030892,-0.3480185622697718,(Business Owner at Location),Operational,1,Type 2 (Tethered Connector) ,2025-10-30 13:52:00+00:00
462539,ODTU Teknokent Gumus Bloklar,Universiteler Mahallesi,Ankara,,06800,TR,39.90005472241458,32.77459503250134,Trugo (TR),Operational,1,CCS (Type 2),2025-10-30 08:54:00+00:00
462538,ODTU Teknokent Gumus Bloklar,Universiteler Mahallesi,Ankara,,06800,TR,39.89904689957211,32.775858678537816,Trugo (TR),Operational,1,CCS (Type 2),2025-10-30 08:51:00+00:00
462515,Posto Araras,Av Santa Terzinha 1017,Jardim,MS,,BR,-21.457169193531826,-56.12052946665517,(Unknown Operator),Operational,1,CCS (Type 2),2025-10-30 00:58:00+00:00
462514,Buro Berkovitch,Muldersveld 16,Oostakker,,9041,BE,51.08070564958845,3.777112061359048,(Unknown Operator),Operational,1,Type 2 (Tethered Connector) ,2025-10-29 22:01:00+00:00
462513,Buro Berkovitch,Muldersveld 16,Oostakker,,9041,BE,51.08078424849336,3.777107269125054,(Unknown Operator),Not Operational,1,Type 2 (Tethered Connector) ,2025-10-29 21:51:00+00:00
462512,Electric Vehicle Charging Station,Vojvode Stepe 47,Arilje,Serbia,31230,RS,43.74850523533894,20.10512216531663,(Unknown Operator),Operational,1,Type 2 (Socket Only),2025-10-29 18:33:00+00:00
462511,Obramat Sabadell (Zunder),Sabadell,Sabadell,,,ES,41.51859914279325,2.099584975929133,Zunder,Operational,3,CCS (Type 2)|Type 2 (Socket Only)|CCS (Type 2),2025-10-29 18:29:00+00:00
462510,Parking Hospital Manises,Manises,Manises,,,ES,39.48592587273234,-0.4529059451199373,(Business Owner at Location),Not Operational,1,Type 2 (Socket Only),2025-10-29 18:21:00+00:00
462509,FurmanovLoc,Furmanov,Gyumri,Շիրակ,3108,AM,40.78525800106087,43.84092501087923,(Unknown Operator),Operational,1,Type 2 (Socket Only),2025-10-29 16:10:00+00:00
462508,Rustaveli 9,Furmanov,Gyumri,Շիրակ,3108,AM,40.78893343824117,43.85345249284365,(Unknown Operator),Operational,1,Unknown,2025-10-29 15:33:00+00:00
462507,MG MAXI Marsa,88 Av. Khaled Ibn El Walid,Marsa,Marsa,,TN,36.8700651377041,10.308513248096688,(Unknown Operator),Operational,1,CCS (Type 2),2025-10-29 13:02:00+00:00
462506,Azpetrol,"Bakı şəhəri, Qaradağ rayonu, Salyan şossesi 15-ci km",Lökbatan,Qaradağ,AZ1063,AZ,40.28543082498723,49.73223421789919,(Unknown Operator),Operational,2,CCS (Type 2)|Unknown,2025-10-29 10:00:00+00:00
462505,Lidl Quart de Poblet,Quart de Poblet,Quart de Poblet,,,ES,39.47587141893189,-0.4354321694761438,Lidl,Operational,1,Type 2 (Socket Only),2025-10-29 08:12:00+00:00
462504,Galp Mislata,Mistala,Mislata,,,ES,39.46931093536648,-0.4332977336514432,GALP Electric,Operational,1,CCS (Type 2),2025-10-29 08:08:00+00:00
462503,V2C,Aldaia,Aldaia,,,ES,39.46089426760162,-0.4434077997345866,(Business Owner at Location),Operational,1,Type 2 (Socket Only),2025-10-29 08:02:00+00:00
462502,LOGGEX,Aldaia,Aldaia,,,ES,39.45979917829001,-0.434502401793793,(Business Owner at Location),Operational,1,Type 2 (Socket Only),2025-10-29 07:59:00+00:00
462501,Mound Mini Mart,27885 Mound Rd,Warren ,MI,48092,US,42.49806671679758,-83.04708414605778,Red E Charge,Operational,1,CCS (Type 1),2025-10-29 01:04:00+00:00
462500,Target - Dabaja Charging ,4999 Beck Road,Canton,MI,,US,42.268459348672536,-83.50327666874932,ChargePoint,Operational,1,CCS (Type 1),2025-10-29 00:59:00+00:00
462499,Cherry Republic Glen Arbor,5919 Manitou Vw,Glen Arbor,MI,49636,US,44.89692941277912,-85.9902551235715,Red E Charge,Operational,1,CCS (Type 1),2025-10-29 00:46:00+00:00
462498,Carrefour Gijón La Calzada,Gijón,Gijón,,,ES,43.536817835189,-5.694626522364018,EDP,Planned For Future Date,2,CCS (Type 2)|Type 2 (Socket Only),2025-10-28 20:38:00+00:00
462497,Ayunt. Torrent. Santa Apolonia,Santa Apolonia,Santa Apolonia,,,ES,39.41064377584067,-0.4863110360162181,Electromaps,Operational,1,Type 2 (Socket Only),2025-10-28 19:29:00+00:00
462496,Ayunt. Torrent. Masía del Juez,Torrent,Torrent,,,ES,39.43918473282602,-0.4868374492507428,Electromaps,Operational,1,Type 2 (Socket Only),2025-10-28 19:19:00+00:00
462495,Ayunt. Torrent. Auditorio,Torrent,Torrent,,,ES,39.42384452242874,-0.4793514608697933,Electromaps,Operational,1,Type 2 (Socket Only),2025-10-28 19:14:00+00:00
462494,Ayunt. Torrente. Avda- Olímpica,Torrent,Torrent,,,ES,39.42518229637571,-0.4700662837316258,Electromaps,Operational,1,Type 2 (Socket Only),2025-10-28 18:59:00+00:00
462493,Interparking Hispania,Torrent,Torrent,,,ES,39.43576071489264,-0.4673254690164867,(Business Owner at Location),Not Operational,1,Type 2 (Socket Only),2025-10-28 18:56:00+00:00
462492,Ayunt. Torrent. Parking Plaza Colón,Torrent,Torrent,,,ES,39.43607570900278,-0.4635299380045126,Electromaps,Operational,1,Type 2 (Socket Only),2025-10-28 18:54:00+00:00
462491,Ayunt. Picanya Cementerio,Picanya,Picanya,,,ES,39.431924384358155,-0.4372915925223424,(Unknown Operator),Operational,1,Type 2 (Socket Only),2025-10-28 18:46:00+00:00
462490,Shell West Branch,2980 Cook Rd,West Branch,MI,48661,US,44.248963703566545,-84.22655556985478,Shell Recharge Solutions (US),Temporarily Unavailable,1,CCS (Type 1),2025-10-28 18:35:00+00:00
462488,Holz werk Bürserberg,Tschapina 10,Bürserberg,,,AT,47.13014553251523,9.775542045491877,da emobil,Operational,1,CCS (Type 2),2025-10-28 16:57:00+00:00
462487,Oosterscheldestraat,Oosterscheldestraat,,South Holland,2652 JG,NL,51.9986207,4.4713045,(Unknown Operator),Operational,0,,2025-10-28 15:01:00+00:00
462486,Route220 ,Via dei Mulini 7,Mantova,MN,,IT,45.164095,10.788816,(Unknown Operator),Operational,1,Type 2 (Socket Only),2025-10-28 14:56:00+00:00
462485,iVolt,Veledi küçəsi,Lənkəran,Lənkəran,,AZ,38.72588804619855,48.84673592381796,(Unknown Operator),Operational,2,CCS (Type 2)|Unknown,2025-10-28 13:22:00+00:00
462484,TOK.az (Hacioglu),M3 Ələt-Astara (Astara),Salyan,Salyan,,AZ,39.59574369518123,48.90326850420638,(Unknown Operator),Operational,2,CCS (Type 2)|Unknown,2025-10-28 12:36:00+00:00
462483,Aldi Albal,Catarroja,Catarroja,,,ES,39.39990619442452,-0.4064254249054784,ALDI SÜD (DE),Planned For Future Date,1,Type 2 (Socket Only),2025-10-28 06:42:00+00:00
462482,Taller de Rodes Catarroja,Catarroja,Catarroja,,,ES,39.40263244132245,-0.3947261160997186,(Business Owner at Location),Operational,1,Type 2 (Socket Only),2025-10-28 06:32:00+00:00
462481,Emotion AdS Scaligera Sud,A4 km 301 (verso Trieste),Verona,VR,,IT,45.410397,11.234368,(Unknown Operator),Operational,3,CCS (Type 2)|CHAdeMO|Type 2 (Tethered Connector) ,2025-10-28 06:18:00+00:00
462480,Plenergy,"Av. del Jarama, 17",Coslada,Madrid,28823,ES,40.43277503401262,-3.5349143417039386,Endesa,Operational,1,CCS (Type 2),2025-10-28 02:27:00+00:00
462479,Alquileres HZ,Águilas,Águilas,,,ES,37.41044152472058,-1.5665244876270208,Electromaps,Operational,1,Type 2 (Socket Only),2025-10-27 18:27:00+00:00
462477,Hotel MC San José ,Níjar,Níjar,,,ES,36.76497200001482,-2.1113595099303666,(Business Owner at Location),Operational,1,Type 2 (Socket Only),2025-10-27 16:40:00+00:00
462476,E.S. COOP Santa María Aguila,El Ejido,El Ejido,,,ES,36.77832104595194,-2.772846642877994,(Business Owner at Location),Operational,3,CCS (Type 2)|CHAdeMO|Type 2 (Tethered Connector) ,2025-10-27 15:00:00+00:00
462475,Parking Plaza Mayor El Eljido,El Ejido,El Ejido,,,ES,36.77440657319633,-2.8132642652363984,Telepark (Empark),Operational,1,Type 2 (Tethered Connector) ,2025-10-27 14:57:00+00:00
462474,"EV24 Charging Station, Marymoncka 34",Marymoncka 34,Warszawa,,00-968,PL,52.2827746013458,20.95984766671963,EV24,Operational,2,Type 2 (Tethered Connector) |Type 2 (Tethered Connector) ,2025-10-27 03:45:00+00:00
462473,"EV24 Charging Station, Wspólna 19",Wspólna 19,Mierzęcice,,42-100,PL,50.4634704535159,19.12960751181107,EV24,Operational,4,Type 2 (Tethered Connector) |CCS (Type 2)|Type 2 (Tethered Connector) |CCS (Type 2),2025-10-27 03:45:00+00:00
462472,"EV24 Charging Station, Słowackiego 197D",Słowackiego 197D,Gdańsk,,80-298,PL,54.38376549796162,18.475103677555495,EV24,Operational,2,Type 2 (Tethered Connector) |Type 2 (Tethered Connector) ,2025-10-27 03:45:00+00:00
462471,"EV24 Charging Station, Generała Władysława Sikorskiego 6",Generała Władysława Sikorskiego 6,Oława,,55-200,PL,50.933394777464535,17.302006645959377,EV24,Operational,1,Type 2 (Tethered Connector) ,2025-10-27 03:45:00+00:00
462470,"EV24 Charging Station, Walońska 17",Walońska 17,Wrocław,,50-057,PL,51.10367902348401,17.05221562647133,EV24,Operational,2,Type 2 (Tethered Connector) |Type 2 (Tethered Connector) ,2025-10-27 03:45:00+00:00
462469,"EV24 Charging Station, Kletno 6F",Kletno 6F,Kletno,,57-550,PL,50.26296179471058,16.870743681259523,EV24,Operational,1,Type 2 (Tethered Connector) ,2025-10-27 03:45:00+00:00
462468,"EV24 Charging Station, Gliwicka 15",Gliwicka 15,Legnica,,59-200,PL,51.21569009308418,16.173984776265257,EV24,Operational,2,Type 2 (Tethered Connector) |Type 2 (Tethered Connector) ,2025-10-27 03:45:00+00:00
462467,"EV24 Charging Station, Zastań 301",Zastań 301,Zastań,,72-514,PL,53.98719967983622,14.691059022798951,EV24,Operational,1,Type 2 (Tethered Connector) ,2025-10-27 02:36:00+00:00
462466,Agriturismo Sulla Via Del Sale,Via Della Pineta,Brallo,pv,,IT,44.69647689204672,9.260164611240612,(Unknown Operator),Operational,1,Unknown,2025-10-27 01:32:00+00:00
462465,Repsol Murcia,Murcia,Murcia,,,ES,38.005064941711765,-1.1449943503662323,Repsol - Ibil (ES),Planned For Future Date,3,CCS (Type 2)|CHAdeMO|Type 2 (Tethered Connector) ,2025-10-26 17:00:00+00:00
462464,Mc Donalds El Esparragal,Murcia,Murcia,,,ES,38.0469159670223,-1.0873246127055154,(Business Owner at Location),Operational,1,Type 2 (Socket Only),2025-10-26 16:37:00+00:00
462463,Colturano - Municipio,Via Municipio,Colturano,Milano,20075,IT,45.38112450523488,9.34810094548925,Be Charge (Italy),Operational,1,Type 2 (Socket Only),2025-10-26 09:57:00+00:00
462462,Dresano - Viale Lombardia,Via Lombardia,Dresano,Milano,20070,IT,45.37315129631912,9.353425468514615,Enel X,Operational,1,CCS (Type 2),2025-10-26 09:55:00+00:00
462461,Plenitude ,Via Ruggero Grieco 32,Nonantola,MO,,IT,44.673692,11.038944,Be Charge (Italy),Operational,1,Type 2 (Socket Only),2025-10-26 06:50:00+00:00
462459,Via Valtorta,Via Valtorta,Milano,Milano,20147,IT,45.50063386786477,9.23122772142358,a2a emoving (IT),Operational,1,Type 2 (Tethered Connector) ,2025-10-25 23:00:00+00:00
462458,Via Valtorta,Via Valtorta,Milano,Milano,20127,IT,45.500952930947506,9.233239362378072,Be Charge (Italy),Operational,1,Type 2 (Tethered Connector) ,2025-10-25 22:58:00+00:00
462457,Alpenhotel Ensmann,Lassing 55,Göstling an der Ybbs,Lower Austria,3345,AT,47.7455723831587,14.8961446058845,(Unknown Operator),Operational,1,CCS (Type 2),2025-10-25 20:41:00+00:00
462456,TEA. 60-as Fogadó Északi oldal Budapest felé,M3 Horti autópálya pihenőhely,Hort,,3013,HU,47.6889884,19.7421634,TEA.,Operational,1,CCS (Type 2),2025-10-25 17:34:00+00:00
462429,CURB - DH-Szerviz Debrecen,Füredi út 76.,Debrecen,,4032,HU,47.54149122233571,21.606257445534652,Curb (Hungary),Operational,1,Type 2 (Socket Only),2025-10-24 20:31:00+00:00
462428,CURB - Kerekestelepi Kemping Debrecen,Lomnic utca 1-3.,Debrecen,,4030,HU,47.50825055626376,21.63791509026396,Curb (Hungary),Operational,1,Type 2 (Socket Only),2025-10-24 20:29:00+00:00
462427,Milford Liquor And Gas,1575 S Milford Rd,Highland,MI,48357,US,42.625048,-83.615756,Red E Charge,Operational,1,CCS (Type 1),2025-10-24 12:56:00+00:00
462426,"Museo del Motor, Finestrat",Finestrat,Finestrat,,,ES,38.54061407615623,-0.1703898079982764,(Business Owner at Location),Operational,1,Type 2 (Socket Only),2025-10-24 09:36:00+00:00
462425,Saltoki Benidorm,Benidorm,Benidorm,,,ES,38.532411007341125,-0.1677417735438666,Electromaps,Operational,1,Type 2 (Socket Only),2025-10-24 09:26:00+00:00
462393,Flying J,16049  Willowbrook Rd,South Beloit,IL,61080,US,42.492898011722616,-88.99937910316282,eVgo Network,Operational,1,CCS (Type 1),2025-10-24 00:43:00+00:00
462391,Stratus House,Stratus House,Blanchardstown,,Dublin 15,IE,53.40719443825208,-6.371945180870853,EZO (IE),Operational,1,Type 2 (Socket Only),2025-10-23 19:22:00+00:00
462390,Gawcott Fields Business Park,Gawcott Fields Farm,Buckingham,Buckinghamshire,MK18 1TN,GB,51.462419,-0.157305,Monta,Operational,1,Type 2 (Socket Only),2025-10-23 16:48:00+00:00
462389,Güvenal Prestij Konakları,Halide Edip Adıvar Cd. No:1,Edirne,,22880,TR,40.84156767681222,26.652963791101342,Otopriz (Türkiye),Operational,1,Type 2 (Socket Only),2025-10-23 09:44:00+00:00
462388,Elektrum Drive Charging Station,Valdlauču iela 2,Riga,,,LV,56.90436378839391,24.14542005462999,(Unknown Operator),Operational,2,CCS (Type 2)|CCS (Type 2),2025-10-23 08:47:00+00:00
462387,Elektrum Drive Charging Station,Ziepniekkalna iela 20,Riga,,,LV,56.90976340219578,24.127261070076884,(Unknown Operator),Operational,2,CCS (Type 2)|CCS (Type 2),2025-10-23 08:44:00+00:00
462383,Evie Mansfield,Early Street,Mansfield,VIC,,AU,-37.05103784342149,146.08673665423203,Evie,Operational,2,CCS (Type 2)|CHAdeMO,2025-10-22 23:55:00+00:00
462382,Spital,Spitalstrasse,Grabs,,,CH,47.173820575344195,9.4499127578988,MOVE (CH),Operational,1,CCS (Type 2),2025-10-22 13:28:00+00:00
462381,Aire des mobilités C2N,Intersection D7 et D404,Douvres-la-Délivrande,Calvados,14440,FR,49.275855655650474,-0.3800338258954525,(Unknown Operator),Operational,1,Unknown,2025-10-22 13:07:00+00:00
462379,Electra centro comm.Gotico,Via Emilia Parmense,Piacenza,,,IT,45.02680975428612,9.734926841630909,Electra,Not Operational,1,CCS (Type 2),2025-10-22 10:36:00+00:00
462378,SMC BOIS,443 Rue Georges Clemenceau,Les Lucs-sur-Boulogne,,85170,FR,46.847820281,-1.4974448,(Unknown Operator),Operational,3,CCS (Type 2)|Type 2 (Socket Only)|CEE 7/4 - Schuko - Type F,2025-10-22 09:33:00+00:00
462376,Via Fermi,Via Fermi,Dresano,Milano,20070,IT,45.370925585883725,9.355445975130236,Enel X,Operational,1,CCS (Type 2),2025-10-21 20:38:00+00:00
462375,Via delle Industrie,Via delle Industrie,Dresano,Milano,20070,IT,45.36922894659446,9.356756838784465,Enel X,Operational,1,CCS (Type 2),2025-10-21 20:36:00+00:00
462374,Viale Sarmazzano,Viale Sarmazzano,Vizzolo Predabissi,Milano,20070,IT,45.36615709475896,9.338296169946034,Duferco Energie,Operational,2,Type 2 (Socket Only)|SCAME Type 3A (Low Power),2025-10-21 20:34:00+00:00
462373,Piazza Piemonte,Piazza Piemonte,Melegnano,Milano,20077,IT,45.3627611673908,9.32085250034322,Enel X,Operational,1,CCS (Type 2),2025-10-21 20:29:00+00:00
462372,IPlanet Via Facciolati,Via Facciolati 52,Padova,PD,35126,IT,45.39642343613022,11.887950146570349,(Unknown Operator),Operational,1,CCS (Type 2),2025-10-21 18:55:00+00:00
462371,IPlanet Via Del Plebiscito,Via Del Plebiscito,Padova,PD,35011,IT,45.431596344869035,11.898746230248436,(Unknown Operator),Operational,1,CCS (Type 2),2025-10-21 18:50:00+00:00
462370,IPlanet Trento,Via Druso Livio 12,Trento,TN,38122,IT,46.07701736443582,11.11390308629234,(Unknown Operator),Operational,1,CCS (Type 2),2025-10-21 18:40:00+00:00
462369,IPlanet Castelnuovo Del Garda,"Strada Statale 11, tangenziale di Peschiera",Castelnuovo Del Garda,VR,37014,IT,45.42996222304751,10.714031629882244,(Unknown Operator),Operational,1,CCS (Type 2),2025-10-21 18:32:00+00:00
462368,IPlanet San Martino Buon Albergo,Via XX Settembre 70C,San Martino Buon Albergo,VR,37036,IT,45.42429588729155,11.085440678746409,(Unknown Operator),Operational,4,CCS (Type 2)|CCS (Type 2)|CHAdeMO|Type 2 (Socket Only),2025-10-21 18:27:00+00:00
462367,Electrip Eurospin Valmontone,Largo Patellani,Valmontone,,00038,IT,41.766233029842994,12.92930103180788,Electrip,Operational,1,CCS (Type 2),2025-10-21 15:40:00+00:00
462366,Rathaus,Poststrasse,Ruggell,,9491,LI,47.24059227182437,9.524974181470157,LKW - Liechtensteiner Kraftwerke (LI),Operational,1,Type 2 (Socket Only),2025-10-21 15:23:00+00:00
462365,EweGo,Am Auer Bach 2,Reichertshofen,Bayern,85084,DE,48.644295,11.520099,EWE,Operational,1,CCS (Type 2),2025-10-21 12:50:00+00:00
462364,E.S. Pina de Ebro (Dir. Zaragoza),Zaragoza,Zaragoza,,,ES,41.52616411330942,-0.3971466952566516,Endesa,Planned For Future Date,2,CCS (Type 2)|Type 2 (Socket Only),2025-10-21 09:53:00+00:00
462363,BSY Charge Point,25th km Salyan hwy,Sahil,Garadagh,,AZ,40.26534861424608,49.66610563104098,(Private Residence/Individual),Operational,2,CCS (Type 2)|IEC 60309 3-pin,2025-10-21 09:33:00+00:00
462361,ELEKTRA AZ QARADAĞ TAMSTORE,"Qaradağ r-nu, Sahil qəsəbəsi",Sahil,Qaradag,,AZ,40.242377084597734,49.59965277757806,Touch (RU),Operational,2,CCS (Type 2)|Unknown,2025-10-20 15:51:00+00:00
462360,OTOJET,2148. Sk. 4 ,Bayrakli,Izmir,35540,TR,38.480582,27.180513,Otojet,Operational,2,CCS (Type 2)|Type 2 (Socket Only),2025-10-20 15:16:00+00:00
462359,OTOJET,Izmir Cevre Yolu ,Karsiyaka,Izmir,35575,TR,38.488231,27.105028,Otojet,Operational,1,CCS (Type 2),2025-10-20 15:11:00+00:00
462358,En Yakit,Refik Tulga Cd. 22A,Bornova,Izmir,35090,TR,38.435417,27.182546,En Yakıt (TR),Operational,1,CCS (Type 2),2025-10-20 14:58:00+00:00
462357,Tuncmatik Charge,364. Sk. 1 35100,Bornova,Izmir,,TR,38.445314,27.206062,Voltrun,Operational,1,CCS (Type 2),2025-10-20 14:48:00+00:00
462356,Voltrun Charging Station – Park Inn by Radisson İzmir,"Cumhuriyet Blv No:124, Alsancak",Konak,Izmir,,TR,38.4285,27.1379,Voltrun,Operational,1,Type 2 (Socket Only),2025-10-20 10:01:00+00:00
462355,ZES Charging Station – Swissôtel Büyük Efes,"Gaziosmanpaşa Blv No:1, Alsancak, Konak/İzmir",Konak,Izmir,,TR,38.4301,27.1385,ZES,Operational,1,Type 2 (Socket Only),2025-10-20 09:56:00+00:00
462354,Trugo Charging Station – Forum Bornova AVM,"Kazım Dirik Mah., Forum Bornova AVM",Bornova,İzmir,,TR,38.4648,27.2253,Trugo (TR),Operational,1,CCS (Type 2),2025-10-20 09:47:00+00:00
462353,CarsCharge,Hasan Aliyev street,Baku,Baku,,AZ,40.39577031483154,49.81998504014018,Touch (RU),Operational,2,CCS (Type 2)|Unknown,2025-10-20 09:37:00+00:00
462352,EMS Baku Mall,Hasan bey Zerdabi 183,Baku,Baku,,AZ,40.389987549876935,49.807198770187824,Touch (RU),Operational,2,CCS (Type 2)|Unknown,2025-10-20 09:32:00+00:00
462351,Bedinoto Tecnología Cruz Alta,R. Nossa Sra. Auxiliadora,Cruz Alta,Rio Grande del sur,98005,BR,-28.64845291370878,-53.589618451832905,(Unknown Operator),Operational,1,CCS (Type 2),2025-10-20 07:24:00+00:00
462350,Jardin Juarez Evergo,Luis Donaldo Colosio & Juarez,Hermosillo,Sonora,,MX,29.081066773179472,-110.95137921505034,Evergo,Operational,2,CCS (Type 1)|GB-T DC - GB/T 20234.3,2025-10-20 04:19:00+00:00
462349,2 Wanless Road,2 Wanless Road,,,,GB,51.46451779383881,-0.101028640227696,Clenergy,Operational,2,Type 2 (Socket Only)|Type 2 (Socket Only),2025-10-20 04:05:00+00:00
462348,Aldi Sud Lindau,Von-Behring Strasse,Lindau,,88131,DE,47.55058677980449,9.722241839738103,ALDI SÜD (DE),Operational,2,CCS (Type 2)|Type 2 (Tethered Connector) ,2025-10-20 03:30:00+00:00
462347,Rochestown Park Hotel,Rochestown Rd,,Co. Cork,,IE,51.87978545708973,-8.424151903268722,EZO (IE),Operational,1,Type 2 (Socket Only),2025-10-19 21:39:00+00:00
462346,شارع الملك عبدالله بن الحسين الثاني,شارع الملك عبدالله بن الحسين الثاني,المدورة,قضاء عين الباشا,,JO,32.113783,35.8666946,(Business Owner at Location),Operational,5,Tesla (Model S/X)|CCS (Type 1)|GB-T DC - GB/T 20234.3|CCS (Type 2)|CHAdeMO,2025-10-19 20:22:00+00:00
462345,Hiperber Elche,Elche,Elche,,,ES,38.268739553529144,-0.7150368839885459,Iberdrola | BP Pulse (ES),Operational,1,CCS (Type 2),2025-10-19 18:01:00+00:00
462344,Hiperber Torrellano,Torrellano,Torrellano,,,ES,38.291885473124154,-0.5917475372642684,Iberdrola | BP Pulse (ES),Operational,1,CCS (Type 2),2025-10-19 17:57:00+00:00
462343,Ayunt. Elche. Arenales del Sol,Arenales del Sol,Arenales del Sol,,,ES,38.25771360028958,-0.5177578148179691,(Unknown Operator),Planned For Future Date,1,Type 2 (Socket Only),2025-10-19 17:53:00+00:00
462342,Plenoil Santa Pola,Santa Pola,Santa Pola,,,ES,38.199300160234344,-0.5670441345251902,Plenoil (ES),Operational,1,CCS (Type 2),2025-10-19 17:49:00+00:00
462341,Cooperativa Eléctrica Benéfica Catralense,Catral,Catral,,,ES,38.15985387716657,-0.8047502867264029,(Unknown Operator),Operational,1,CCS (Type 2),2025-10-19 17:44:00+00:00
462340,Enel Conad Villa Sesso,Via Dei Gonzaga 55,Reggio Emilia,RE,,IT,44.743998,10.608628,Enel X,Operational,1,CCS (Type 2),2025-10-19 16:27:00+00:00
462338,Playa Finestrat,Finestrat,Finestrat,,,ES,38.524961400524546,-0.1674247302419189,Iberdrola | BP Pulse (ES),Operational,1,Type 2 (Tethered Connector) ,2025-10-19 13:53:00+00:00
462337,Sonrisa Apartaments,Benidorm,Benidorm,,,ES,38.53285590434413,-0.16206479475386,(Business Owner at Location),Operational,1,Type 2 (Socket Only),2025-10-19 13:51:00+00:00
462336,Hotel Olympus,Benidorm,Benidorm,,,ES,38.543732867591615,-0.1345740673104956,(Business Owner at Location),Operational,1,Type 2 (Socket Only),2025-10-19 13:49:00+00:00
462335,Hotel Rosamar,Benidorm,Benidorm,,,ES,38.53769112123692,-0.1105902703301353,(Business Owner at Location),Operational,1,Type 2 (Socket Only),2025-10-19 13:47:00+00:00
462334,Lidl Benidorm,Benidorm,Benidorm,,,ES,38.53987617742058,-0.1039164880337466,Lidl,Operational,1,Type 2 (Socket Only),2025-10-19 13:45:00+00:00
462333,Hotel Deloix,Benidorm,Benidorm,,,ES,38.546534531000475,-0.0988856697267692,(Business Owner at Location),Operational,1,Type 2 (Socket Only),2025-10-19 13:43:00+00:00
462332,"Camping Racó, Benidorm",Benidorm,Benidorm,,,ES,38.548865088041424,-0.098759749495457,(Business Owner at Location),Operational,1,Type 2 (Socket Only),2025-10-19 13:42:00+00:00
462331,Mercadona Cocentaina,Cocentaina,Cocentaina,,,ES,38.741898778430794,-0.4377950925322693,Mercadona,Operational,1,Type 2 (Socket Only),2025-10-19 13:29:00+00:00
462330,Ayunt. Muro de Alcoy,Muro de Alcoy,Muro de Alcoy,,,ES,38.77701698620899,-0.4453055131011751,(Unknown Operator),Operational,1,Type 2 (Socket Only),2025-10-19 13:26:00+00:00
462329,Ayunt.  Callosa D'EnSarrià. Parking, Callosa D'EnSarrià, Callosa D'EnSarrià,,,ES,38.65144356743224,-0.1203113266759601,(Unknown Operator),Not Operational,1,Type 2 (Socket Only),2025-10-19 13:20:00+00:00
462328,Ayunt. Callosa D'EnSarrià- Policía Local , Callosa D'EnSarrià, Callosa D'EnSarrià,,,ES,38.65119092943797,-0.1224303383124834,(Unknown Operator),Operational,1,Type 2 (Socket Only),2025-10-19 13:19:00+00:00
462327,Casa Rural Finca Tosal,Bolulla,Bolulla,,,ES,38.670507692668934,-0.0959451373546471,(Business Owner at Location),Operational,1,Type 2 (Socket Only),2025-10-19 13:16:00+00:00
462326,Aldi Ondara,Ondara,Ondara,,,ES,38.8162977730172,0.0228667500435904,REMO Mobility (ES),Operational,2,CCS (Type 2)|Type 2 (Socket Only),2025-10-19 13:08:00+00:00
462325,Hotel Daniya Dénia,Dénia,Dénia,,,ES,38.84666785207517,0.0989593068503609,(Business Owner at Location),Operational,1,Type 2 (Socket Only),2025-10-19 13:02:00+00:00
462324,Ayunt. Sanet i Els Negrals Biblioteca Municipal,Sanet i Els Negrals,Sanet i Els Negrals,,,ES,38.819706125841634,-0.0354807617146661,(Unknown Operator),Operational,1,Type 2 (Socket Only),2025-10-19 12:58:00+00:00
462323,E.S. Agullent,Agullent,Agullent,,,ES,38.82767074461597,-0.5607260722184719,Endesa,Operational,1,CCS (Type 2),2025-10-19 12:54:00+00:00
462322,Moixent Polígono,Moixent,Moixent,,,ES,38.873178328097,-0.7670451984415649,(Unknown Operator),Not Operational,1,Type 2 (Socket Only),2025-10-19 12:45:00+00:00
462321,Casa de la Cultura Montesa,Montesa,Montesa,,,ES,38.94946888342457,-0.6495913600045924,(Unknown Operator),Not Operational,1,Type 2 (Socket Only),2025-10-19 12:43:00+00:00
462320,Ayunt. Alfahuir,Alfahuir,Alfahuir,,,ES,38.92958128354695,-0.2505060051944383,(Unknown Operator),Operational,1,Type 2 (Socket Only),2025-10-19 12:36:00+00:00
462319,Popeye's Gandía,Gandía,Gandía,,,ES,38.95682711013225,-0.1748627569882046,Iberdrola | BP Pulse (ES),Planned For Future Date,1,CCS (Type 2),2025-10-19 12:33:00+00:00
462318,Ayunt. Refelcofer,Refelcofer,Refelcofer,,,ES,38.93182612452566,-0.1687159705406884,(Unknown Operator),Operational,1,Type 2 (Socket Only),2025-10-19 12:31:00+00:00
462317,Ayunt. Alqueria de la Condesa. Parking,Alqueria de la Condesa,Alqueria de la Condesa,,,ES,38.93666531717005,-0.1491018833103226,(Unknown Operator),Operational,1,Type 2 (Socket Only),2025-10-19 12:29:00+00:00
462316,Ayunt. Guardamar de la Safor Playa,Guardamar de la Safor,Guardamar de la Safor,,,ES,38.966951905879455,-0.1366641957616821,Fenie Energía (Spain),Operational,1,Type 2 (Socket Only),2025-10-19 12:27:00+00:00
462315,Ayunt. Daimus ,Daimus,Daimus,,,ES,38.97103900431051,-0.1542045166821708,(Unknown Operator),Operational,1,Type 2 (Socket Only),2025-10-19 12:19:00+00:00
462314,Cepsa Gandía,Gandía,Gandía,,,ES,38.983132279372086,-0.1843762506049415,CEPSA (ES),Planned For Future Date,1,CCS (Type 2),2025-10-19 12:17:00+00:00
462313,Centro Multiaventura Vaya Tela,Gandía,Gadía,,,ES,38.98710999215393,-0.1693773138758842,(Business Owner at Location),Operational,1,CEE 7/4 - Schuko - Type F,2025-10-19 12:13:00+00:00
462312,Aldi Gandía,Gandía,Gandía,,,ES,38.984973767915136,-0.1641058893308127,REMO Mobility (ES),Operational,2,CCS (Type 2)|Type 2 (Socket Only),2025-10-19 12:11:00+00:00
462311,Mercadona Tavernes de la Valldigna,Tavernes de la Valldigna,Tavernes de la Valldigna,,,ES,39.071254776591616,-0.2607193425021705,Mercadona,Operational,1,Type 2 (Socket Only),2025-10-19 12:06:00+00:00
462310,Ayunt. Carcaixent. Plaza de España,Carcaixent,Carcaixent,,,ES,39.119394600162025,-0.4461930576030681,Qwello,Operational,1,Type 2 (Socket Only),2025-10-19 11:11:00+00:00
462309,Repsol Carcaixent,Carcaixent,Carcaixent,,,ES,39.12641209716031,-0.4500244879782258,Repsol - Ibil (ES),Operational,3,CCS (Type 2)|CHAdeMO|Type 2 (Tethered Connector) ,2025-10-19 11:10:00+00:00
462308,Ayunt. Carcaixent Jose Vidal,Jose Vidal,Carcaixent,,,ES,39.1244983916896,-0.4482328926110313,Qwello,Operational,1,Type 2 (Socket Only),2025-10-19 11:07:00+00:00
462307,AMCOR FLEXIBLES ESPAÑA SL,Alzira,Alzira,,,ES,39.13232704930326,-0.4135057997448257,Electromaps,Operational,1,Type 2 (Socket Only),2025-10-19 11:05:00+00:00
462306,Aldi Alzira,Alzira,Alzira,,,ES,39.15105141848619,-0.4255982162958389,ALDI SÜD (DE),Operational,1,Type 2 (Socket Only),2025-10-19 11:02:00+00:00
462305,Burger King Alzira,Alzira,Alzira,,,ES,39.160985077541426,-0.4309501165485017,Iberdrola | BP Pulse (ES),Operational,2,CCS (Type 2)|CHAdeMO,2025-10-19 10:59:00+00:00
462304,Consum Cullera (Endesa),Cullera,Cullera,,,ES,39.1625722121878,-0.2463673007067655,Endesa,Operational,1,Type 2 (Socket Only),2025-10-19 10:56:00+00:00
462303,Ayunt. Albalat de la Ribera,Albalat de la Ribera,Albalat de la Ribera,,,ES,39.204482585175526,-0.3875986437335541,Iberdrola | BP Pulse (ES),Planned For Future Date,1,Type 2 (Socket Only),2025-10-19 10:51:00+00:00
462302,Lidl Algemesí,Algemesí,Algemesí,,,ES,39.19691270846931,-0.4365970971637125,Lidl,Operational,1,Type 2 (Socket Only),2025-10-19 10:49:00+00:00
462301,Circuit de la Ribera,Algemesí,Algemesí,,,ES,39.225687058877185,-0.4668461957620593,(Business Owner at Location),Operational,1,Type 2 (Socket Only),2025-10-19 10:47:00+00:00
462300,Area Comercial Carlet,Carlet,Carlet,,,ES,39.218158606912965,-0.5173134642244577,Electromaps,Operational,3,CCS (Type 2)|CHAdeMO|Type 2 (Socket Only),2025-10-19 10:45:00+00:00
462299,Stadthaus,Schachenstrasse 2,Rapperswil-Jona ,SG,8645,CH,47.22948282660752,8.837585870027965,eCarUp (CH),Operational,1,Type 2 (Socket Only),2025-10-19 10:09:00+00:00
462298,Parcheggio Via Pertini,Via Sandro Pertini,Melegnano,Melegnano,20077,IT,45.35800376394096,9.318768071451132,Enel X,Operational,1,CCS (Type 2),2025-10-19 10:03:00+00:00
462297,Parkirišče Dvorana Vitranc,Kolodvorska Ulica,Kranjska Gora ,,4280,SI,46.48556034712266,13.785192119823932,Easypark,Operational,1,Type 2 (Tethered Connector) ,2025-10-19 09:05:00+00:00
462296,CarsCharge,Akademik Həsən Əliyev Küçəsi 35A,Baku,Baku,,AZ,40.39572361516048,49.82000636433543,Touch (RU),Operational,2,CCS (Type 2)|Unknown,2025-10-19 05:21:00+00:00
462295,Estacionamento Caldas Novas ,"R. Machado de Assis, 410 - Termal, Caldas Novas - GO, 75680-074, Brasil",Caldas Novas ,Goiás ,75680-074,BR,-17.744608177194195,-48.63081480014415,(Unknown Operator),Operational,1,CCS (Type 2),2025-10-19 02:59:00+00:00
462289,Atacadão Dia a Dia ,"Área 49, Rua JB 21 Jardim Belvedere (GO-309, Caldas Novas - GO, 75680-001, Brazil",Caldas Novas ,Minas Gerais ,75680-001,BR,-17.72412961098668,-48.64193848726319,(Unknown Operator),Operational,1,CCS (Type 2),2025-10-19 02:33:00+00:00
462288,Anglesey Terrace,Anglesey Terrace,Greenore,Co. Louth,,IE,54.03169103537101,-6.133892343845105,Weev,Operational,1,Type 2 (Socket Only),2025-10-19 02:04:00+00:00
462286,Euro Business Park,Euro Business Park,Little Island,Co. Cork,,IE,51.90557184051144,-8.352709974050867,ePower,Planned For Future Date,1,CCS (Type 2),2025-10-18 19:24:00+00:00
462285,Restauroute Rose de la Broye,A1,Lully,,,CH,46.8319077377586,6.858095142680668,MOVE (CH),Operational,3,CCS (Type 2)|Type 2 (Socket Only)|CHAdeMO,2025-10-18 18:52:00+00:00
462284,Evergo - Novey Los Angeles,"C. 64B Oeste, Panamá, Provincia de Panamá",,,,PA,9.001830276030944,-79.52919677458499,Evergo,Operational,2,CCS (Type 1)|CHAdeMO,2025-10-18 15:25:00+00:00
462283,Acea Futura,Via Statale 22,Scandiano,RE,,IT,44.599239,10.694955,Be Charge (Italy),Operational,1,Type 2 (Socket Only),2025-10-18 14:14:00+00:00
462282,Hub Peraleda (Wenea),Peraleda de la Mata,Peraleda de la Mata,,,ES,39.89192448185304,-5.427291794594481,Wenea,Planned For Future Date,1,CCS (Type 2),2025-10-18 10:41:00+00:00
462281,Hub Tordesillas (Wenea),Tordesillas,Tordedillas,,,ES,41.51569370946322,-5.01872348769021,Wenea,Planned For Future Date,1,CCS (Type 2),2025-10-17 20:48:00+00:00
462280,Drinagh Business Park,Drinagh Business Park,Drinagh,Co. Wexford,,IE,52.30846823627297,-6.462794231998259,EVBox,Operational,1,Type 2 (Socket Only),2025-10-17 15:20:00+00:00
462279,BM Mungía,Mungía,Mungía,,,ES,43.355178445027235,-2.8544964995580813,Zunder,Operational,2,CCS (Type 2)|Type 2 (Socket Only),2025-10-17 10:29:00+00:00
462278,Centro Deportivo La Marazuela,Las Rozas,Las Rozas,,,ES,40.50020752418149,-3.8688994655595934,(Business Owner at Location),Operational,1,Type 2 (Socket Only),2025-10-17 07:42:00+00:00
462277,Ayunt. Las Rozas. Navalcarbón,Las Rozas,Las Rozas,,,ES,40.51623582156688,-3.8993214244108,Zunder,Operational,1,Type 2 (Socket Only),2025-10-17 07:35:00+00:00
462269,Ionna Rechargery,1017 Douglas Blvd.,Roseville,CA,95678,US,38.744073964938224,-121.27781809766373,IONNA,Planned For Future Date,2,CCS (Type 1)|NACS / Tesla Supercharger,2025-10-17 04:53:00+00:00
462268,OPLUG 24h,Av cerro azul 2579,Maringa,PR,,BR,-23.44995901708917,-51.93206863767148,(Unknown Operator),Operational,1,CCS (Type 2),2025-10-17 03:17:00+00:00
462228,IONNA Kutztown Rechargery @ Sheetz,2298 Golden Key Road,Kutztown,PA,19530,US,40.582436387181275,-75.70886600000216,IONNA,Operational,2,CCS (Type 1)|NACS / Tesla Supercharger,2025-10-16 21:52:00+00:00
462227,IONNA Middletown Rechargery Relay,300 Middletown Parkway,Middletown,MD,21769,US,39.43728878949082,-77.52915716886974,IONNA,Operational,2,CCS (Type 1)|NACS / Tesla Supercharger,2025-10-16 21:49:00+00:00
462226,IONNA Raleigh Rechargery Relay,4237 Louisburg Road,Raleigh,NC,27604,US,35.84159568302509,-78.57751219224707,IONNA,Operational,2,CCS (Type 1)|NACS / Tesla Supercharger,2025-10-16 21:46:00+00:00
462225,IONNA Beaver Rechargery Relay,1360 300 W,Beaver,UT,84713,US,38.292272909097704,-112.64654849472242,IONNA,Operational,2,CCS (Type 1)|NACS / Tesla Supercharger,2025-10-16 21:40:00+00:00
462201,Advance Service,Eastpoint Business Park,East Wall,,Dublin 3,IE,53.35764365830261,-6.229111209483904,EZO (IE),Operational,1,Type 2 (Socket Only),2025-10-16 19:27:00+00:00
462200,The Waterside,Charlotte Quay Dock,,,Dublin 4,IE,53.34242682654022,-6.235616168908109,EZO (IE),Operational,1,Type 2 (Socket Only),2025-10-16 19:22:00+00:00
462199,Guinness Enterprise Centre,Taylor's Lane,The Liberties,,Dublin 8,IE,53.34084027398157,-6.284232228026326,EZO (IE),Operational,1,Type 2 (Socket Only),2025-10-16 19:17:00+00:00
462198,Dromhall Hotel,Muckross Rd,Killarney,Co. Kerry,,IE,52.05340886204286,-9.506540166638956,EZO (IE),Planned For Future Date,1,CCS (Type 2),2025-10-16 13:31:00+00:00
462197,Roig Arena,Valencia,Valencia,,,ES,39.44836878556109,-0.3644884550848246,Iberdrola | BP Pulse (ES),Operational,2,CCS (Type 2)|Type 2 (Tethered Connector) ,2025-10-16 10:39:00+00:00
462196,Tesla Supercharger Rumia,Grunwaldzka 108,Rumia,,84-230,PL,54.58568532884112,18.371422251834133,Tesla (Tesla-only charging),Operational,1,CCS (Type 2),2025-10-16 10:23:00+00:00
462195,Uno-x,Hestkærvej 1,Hjørring,,9800,DK,57.4562703942203,10.011218100124552,(Unknown Operator),Operational,1,CCS (Type 2),2025-10-16 09:40:00+00:00
462194,GoFar (20 Yanvar),Tbilisi Avenue,Baku,Baku,,AZ,40.401270978621056,49.81064115186496,Gofar (az),Operational,2,CCS (Type 2)|Unknown,2025-10-16 06:15:00+00:00
462193,TOK.az,Tbilisi propsekti,Baku,Baku,,AZ,40.392545350257535,49.82377907990292,(Unknown Operator),Operational,2,CCS (Type 2)|Unknown,2025-10-16 06:08:00+00:00
462192,iVolt,Matbuat Avenue,Baku,Baku,,AZ,40.37829233651621,49.80808415224021,(Unknown Operator),Operational,2,CCS (Type 2)|Unknown,2025-10-16 06:03:00+00:00
462174,EDS La Glorieta No 2 - ERCO,Carrera 24 A # 1BN - 04,Buga,Valle,763042,CO,3.8949639742142095,-76.31192809466732,(Unknown Operator),Operational,3,CCS (Type 1)|CCS (Type 2)|GB-T DC - GB/T 20234.3,2025-10-15 18:43:00+00:00
462173,EDS Cootracaime - ERCO,Cra. 7 #14 - 02,Cajamarca,Tolima,732501,CO,4.440320439119487,-75.4314694668394,(Unknown Operator),Operational,3,CCS (Type 1)|CCS (Type 2)|GB-T DC - GB/T 20234.3,2025-10-15 18:38:00+00:00
462172,ERCO - Outlet de Moda,Cl. 16 #55-129,Medellin,Antioquia,050024,CO,6.21940442514798,-75.8333169046327,(Unknown Operator),Operational,2,CCS (Type 1)|CCS (Type 2),2025-10-15 18:11:00+00:00
462171,Eletroposto Kinsol Dom Pedro,"Av. Dom Pedro I, 1470 - Ipiranga, Ribeirão Preto - SP, 14055-630",Ribeirão Preto,São Paulo,14055630,BR,-21.15144250246827,-47.82489361374516,Zeta Uno (BR),Operational,1,CCS (Type 2),2025-10-15 14:57:00+00:00
462170,CURB - Polyduct Nádudvar,Kabai utca 62.,Nádudvar,,4181,HU,47.417240581046286,21.175289942385007,Curb (Hungary),Operational,1,CCS (Type 2),2025-10-15 14:17:00+00:00
462169,St Finbarr's CNU,St Finbarr's Hospital,Douglas,Co. Cork,,IE,51.88858406939974,-8.461406339680252,GoCharge (IE),Operational,1,Type 2 (Socket Only),2025-10-15 10:56:00+00:00
462168,The K Club,The K Club,Straffan,Co. Kildare,,IE,53.308235613532645,-6.6224240967076184,Smappee,Operational,1,Type 2 (Socket Only),2025-10-15 10:45:00+00:00
462167,The K Club,The K Club,Straffan,Co. Kildare,,IE,53.308085098616345,-6.623917029108952,Smappee,Operational,1,Type 2 (Socket Only),2025-10-15 10:44:00+00:00
462166,Carrigallen,Main St,Carrigallen,Co. Leitrim,,IE,53.97692404403142,-7.644185639246643,Smappee,Operational,1,Type 2 (Socket Only),2025-10-15 10:29:00+00:00
462164,Electra - Cran-Gevrier - Campanile Annecy Sud,4 Impasse des Crêts,Cran-Gevrier,,74960,FR,45.90015486214571,6.10283794987879,Electra,Operational,2,CCS (Type 2)|Type 2 (Socket Only),2025-10-14 19:11:00+00:00
462163,Pembroke Kilkeny,Patrick St,Kilkenny,Co. Kilkenny,,IE,52.64943752366853,-7.250727976095277,ePower,Operational,1,Type 2 (Socket Only),2025-10-14 19:04:00+00:00
462161,A.S. La Pedresina,Fuentes De Oñoro,Fuentes De Oñoro,,,ES,40.59204122894491,-6.791039184278503,Wenea,Operational,1,CCS (Type 2),2025-10-13 21:32:00+00:00
462160,TC Mihajlovic,Sremska 1,Bijeljina,RS,76300,BA,44.763270832586755,19.210026053151523,Moon Power,Operational,1,CCS (Type 2),2025-10-13 20:14:00+00:00
462159,Rapparees Starlights GAA Club,McCauley Park Bellefield,Enniscorthy,Co. Wexford,,IE,52.50471784934874,-6.578531051026914,EZO (IE),Operational,1,CCS (Type 2),2025-10-13 19:28:00+00:00
462158,Lidl Dunboyne,Main St,Dunboyne,Co. Meath,,IE,53.42038953321085,-6.473416385505743,EZO (IE),Operational,3,CHAdeMO|CCS (Type 2)|Type 2 (Tethered Connector) ,2025-10-13 19:18:00+00:00
462157,The Lavey Inn,R165,Knockanoark,Co. Cavan,,IE,53.96663326928507,-7.228897833765018,EZO (IE),Operational,1,CCS (Type 2),2025-10-13 19:08:00+00:00
462156,The Planet Athlone,Diskin Centre,Athlone,Co. Westmeath,,IE,53.42836131025567,-7.951109136089713,EZO (IE),Operational,1,CCS (Type 2),2025-10-13 18:59:00+00:00
462155,Ayunt. Soneja,Soneja,Soneja,,,ES,39.815744054808704,-0.4301869961913098,(Unknown Operator),Not Operational,1,Type 2 (Socket Only),2025-10-13 18:53:00+00:00
462154,Ayunt. Serra,Serra,Serra,,,ES,39.683688478077045,-0.4305060153787963,(Unknown Operator),Operational,2,Type 2 (Socket Only)|CEE 7/4 - Schuko - Type F,2025-10-13 18:33:00+00:00
462153,ELETROPOSTOGP 001-Geração Própria,"Novo Paraíso, 118 - Novo Paraíso, Estrela - RS, 95880-000, Brasil",Estrela,rio grande do sul,95880-000,BR,-29.49320354792397,-51.92751382683173,(Unknown Operator),Operational,1,CCS (Type 2),2025-10-13 15:34:00+00:00
462152,En Yakıt - Aydın - Denizli Otoyolu Sarayköy - Aydın Yönü,Kumluca Mahallesi Kumluca Sokağı No:2 Sarayköy / DENİZLİ,,,,TR,37.909597682136194,28.852566397363717,En Yakıt (TR),Operational,1,CCS (Type 2),2025-10-13 15:11:00+00:00
462151,En Yakıt - Aydın - Denizli Otoyolu Sarayköy - Denizli Yönü ,Sarayköy/Denizli,,,,TR,37.90886624354815,28.85324910660779,En Yakıt (TR),Operational,1,CCS (Type 2),2025-10-13 15:09:00+00:00
462150,En Yakıt - Aydın - Denizli Otoyolu - Aydın Yönü ,Şahnalı Mahallesi 7032 Sokağı No:106 Efeler / AYDIN,,,,TR,37.79736592976367,27.945378977611423,En Yakıt (TR),Operational,1,CCS (Type 2),2025-10-13 15:06:00+00:00
462149,En Yakıt - Aydın - Denizli Otoyolu - Denizli Yönü,Şahnalı Mahallesi 7032 Sokağı No:106 Efeler / AYDIN,,,,TR,37.7962596206462,27.945312153702844,En Yakıt (TR),Operational,1,CCS (Type 2),2025-10-13 15:04:00+00:00
462148,FastWay ,Via Emilia Ovest 117,Modena,MO,,IT,44.650154,10.916288,(Unknown Operator),Operational,1,CCS (Type 2),2025-10-13 14:11:00+00:00
462143,Ayunt. Torrebaja,Torrebaja,Torrebaja,,,ES,40.10147399819931,-1.2586977689398964,(Unknown Operator),Operational,1,Type 2 (Socket Only),2025-10-13 12:36:00+00:00
462142,Ferretería Blasco,Molina de Aragón,Molina de Aragón,,,ES,40.84513254865129,-1.8838514174981356,(Business Owner at Location),Operational,1,Type 2 (Socket Only),2025-10-13 10:48:00+00:00
462141,E.S. Repsol Teruel,Teruel,Teruel,,,ES,40.35761058088602,-1.1361022925633506,Repsol - Ibil (ES),Operational,3,CCS (Type 2)|CHAdeMO|Type 2 (Tethered Connector) ,2025-10-13 10:26:00+00:00
462140,Adze Charge – Bahçeşehir Park 2 DC Hızlı Şarj İstasyonu,"Bahçeşehir 2. Kısım, Şelale Caddesi",Başakşehir,İstanbul,34488,TR,41.07282831884183,28.692703598360257,ADZE ŞARJ (TR),Operational,1,CCS (Type 2),2025-10-13 09:53:00+00:00
462139,Subestación Fuendetodos,Fuendetodos,Fuendetodos,,,ES,41.338084659205094,-0.977343779900366,Iberdrola | BP Pulse (ES),Operational,1,Type 2 (Tethered Connector) ,2025-10-13 09:50:00+00:00
462138,Estación Esquí Valdelinares,Valdelinares,Valdelinares,,,ES,40.37927131048323,-0.633543344937948,Endesa,Operational,1,Type 2 (Socket Only),2025-10-13 09:46:00+00:00
462137,Ayunt. Olba,Olba,Olba,,,ES,40.13316681571956,-0.6274882719862944,(Unknown Operator),Not Operational,1,Type 2 (Socket Only),2025-10-13 09:36:00+00:00
462136,Virši Baloži,Akvedukti,Krustkalni,Ķekavas novads,LV-2111,LV,56.88907299489827,24.146543005764897,(Unknown Operator),Operational,2,CCS (Type 2)|CCS (Type 2),2025-10-13 09:23:00+00:00
462135,Eleport | A7,A7,Krustkalni,Ķekavas novads,LV-2111,LV,56.89521267788527,24.13919039235202,Eleport,Operational,2,CCS (Type 2)|CHAdeMO,2025-10-13 09:17:00+00:00
462134,Elektrum Drive Charging Station,Zaļā iela 3a,Baloži,Ķekavas novads,LV-2128,LV,56.879801457451805,24.14994950629807,(Unknown Operator),Operational,2,CCS (Type 2)|CHAdeMO,2025-10-13 09:09:00+00:00
462133,ALDI SÜD München-Mittelsendling,Zielstattstraße 73,München,Bavaria,81379,DE,48.10140500464124,11.52542282578804,ALDI SÜD (DE),Operational,3,CCS (Type 2)|CCS (Type 2)|Type 2 (Socket Only),2025-10-13 09:02:00+00:00
462132,Baloži Titurgas Stāsti | Ignitis ON,Uzvaras prospekts 1C,Baloži,Ķekavas novads,LV-2128,LV,56.88182435355984,24.150157622097595,Ignitis UAB (LT),Operational,1,Unknown,2025-10-13 08:59:00+00:00
462131,Baloži MAXIMA | Ignitis ON,Baložu iela 5,Baloži,Ķekavas novads,,LV,56.88253612756765,24.149765454070916,Ignitis UAB (LT),Operational,2,CCS (Type 2)|CHAdeMO,2025-10-13 08:56:00+00:00
462130,Ayunt. Gaibiel,Gaibiel,Gaibiel,,,ES,39.92756882757885,-0.4938624884665614,Iberdrola | BP Pulse (ES),Operational,1,Type 2 (Tethered Connector) ,2025-10-13 08:15:00+00:00
462128,Rest. Mas de Roures,Val d'Alba,Val d'Alba,,,ES,40.18476986954241,-0.0257629510018659,(Business Owner at Location),Operational,1,Type 2 (Socket Only),2025-10-13 07:44:00+00:00
462127,Kimco-charlotte,5541 South Blvd,Charlotte,NC,28210,US,35.16030906871168,-80.87590677279877,(Unknown Operator),Operational,2,CCS (Type 1)|CHAdeMO,2025-10-13 02:20:00+00:00
462126,MUUN LANDSCAPE HOTEL,La Cuba,La Cuba,,,ES,40.55272820407535,-0.3156347887834272,(Business Owner at Location),Operational,1,Type 2 (Socket Only),2025-10-12 19:23:00+00:00
462125,Ayunt. Oliete,Oliete,Oliete,,,ES,40.99847267733492,-0.6713084461160861,(Unknown Operator),Operational,2,Type 2 (Socket Only)|CEE 7/4 - Schuko - Type F,2025-10-12 18:27:00+00:00
462123,Poste Italiane ,Via Giovanni Boccaccio 1,Carpaneto Piacentino,PC,,IT,44.916704,9.789965,Be Charge (Italy),Operational,2,CCS (Type 2)|Type 2 (Socket Only),2025-10-12 16:46:00+00:00
462122,LES Renault Fraga ,Fraga,Fraga,,,ES,41.517883894816464,0.3234272264728588,(Business Owner at Location),Operational,1,Type 2 (Socket Only),2025-10-12 16:37:00+00:00
462121,Supermercado Orangutan,Fraga,Fraga,,,ES,41.521752639805015,0.3370845177491901,(Business Owner at Location),Operational,1,Type 2 (Socket Only),2025-10-12 16:36:00+00:00
462120,Ayunt. Soses,Soses,Soses,,,ES,41.532779567632474,0.487635650389393,(Unknown Operator),Not Operational,1,Type 2 (Socket Only),2025-10-12 15:42:00+00:00
462119,AN Energéticos - Estiche de Cinca,Estiche de Cinca,Estiche de Cinca,,,ES,41.81520226029272,0.1184221145666697,Iberdrola | BP Pulse (ES),Operational,2,CCS (Type 2)|CHAdeMO,2025-10-12 15:30:00+00:00
462118,Ewiva Decathlon,Viale dell' Artigianato 88,Piacenza,PC,,IT,45.043512,9.740262,Ewiva (IT),Operational,1,CCS (Type 2),2025-10-12 14:25:00+00:00
462117,Polestar Sandyford,37 Heather Rd,,,Dublin 18,IE,53.27425426376803,-6.2121886006937075,(Business Owner at Location),Operational,1,CCS (Type 2),2025-10-12 14:16:00+00:00
462116,Tulay EV Charging Station,Petra St.,Irbid,,,JO,32.52337336724635,35.901265305930224,(Unknown Operator),Operational,3,CHAdeMO|CCS (Type 2)|GB-T DC - GB/T 20234.3,2025-10-12 13:02:00+00:00
462115,محطة تولاي لشحن السيارات الكهربائية,10th Str.,Irbid,Huwarah,,JO,32.52542809011784,35.915135354356835,(Unknown Operator),Operational,5,GB-T DC - GB/T 20234.3|GB-T DC - GB/T 20234.3|CCS (Type 1)|CCS (Type 2)|Tesla (Model S/X),2025-10-12 12:52:00+00:00
462113,אדגר אפר,המלאכה 16,ראש העין,ישראל,,IL,32.10800274616685,34.969484017275875,(Unknown Operator),Operational,2,Type 1 (J1772)|CCS (Type 2),2025-10-12 09:35:00+00:00
462112,Mathimo – Bourgoin-Jallieu,6 boulevard Saint-Michel,Bourgoin-Jallieu,,38300,FR,45.58931184653619,5.275581903635384,Power Dot,Operational,3,CHAdeMO|Type 2 (Socket Only)|CCS (Type 2),2025-10-11 21:24:00+00:00
462111,Shell - Novi,47300 Citygate,Novi,MI,48374,US,42.49111094266692,-83.51430654375649,Red E Charge,Operational,2,CCS (Type 1)|NACS / Tesla Supercharger,2025-10-11 19:12:00+00:00
462110,Korenbloemenstraat,Korenbloemenstraat,Halle-Vilvoorde,Halle-Vilvoorde,1950,BE,50.8493360363847,4.470932022347142,(Unknown Operator),Operational,1,CCS (Type 2),2025-10-11 18:41:00+00:00
462109,Parque Científico TecnoAlcalá (Wenea),Alcalá,Alcalá,,,ES,40.514438461464465,-3.340172613525965,Wenea,Operational,2,CCS (Type 2)|Type 2 (Socket Only),2025-10-11 18:12:00+00:00
462108,Parque Científico TecnoAlcalá (Wenea),Alcalá,Alcalá,,,ES,40.51515424296113,-3.3390980031118715,Wenea,Operational,2,CCS (Type 2)|Type 2 (Socket Only),2025-10-11 18:11:00+00:00
462107,Parque Científico TecnoAlcalá (Wenea),Alcalá,Alcalá,,,ES,40.51668397925957,-3.3408509471632897,Wenea,Operational,2,CCS (Type 2)|Type 2 (Socket Only),2025-10-11 18:10:00+00:00
462106,Parque Científico TecnoAlcalá (Wenea),Alcalá,Alcalá,,,ES,40.51822818766172,-3.342641532241487,Wenea,Operational,2,CCS (Type 2)|Type 2 (Socket Only),2025-10-11 18:08:00+00:00
462105,Enbw,Kölner straße 1,Eschweiler ,,52249,DE,50.82024991056037,6.296469228653905,EnBW (D),Operational,2,CCS (Type 2)|CCS (Type 2),2025-10-11 12:00:00+00:00
462104,Dean Road,Dean Road,London,England,TW12 1BF,GB,51.42999475366136,-0.3746051096610472,ubitricity,Operational,1,CCS (Type 2),2025-10-11 10:17:00+00:00
462103,Ultra Fast Charge,Centura Brasov,Brasov,Brasov,,RO,45.68852893704917,25.621361727615636,(Unknown Operator),Operational,1,CCS (Type 2),2025-10-11 08:11:00+00:00
462102,LCT Charge,Strada Zizinului 115,Brasov,Brasov,500403,RO,45.648857989514056,25.640429335460222,(Unknown Operator),Operational,2,CCS (Type 2)|Type 2 (Tethered Connector) ,2025-10-11 05:56:00+00:00
462101,Ultra Fast LCT Charge ,DN1k,Brasov,Brasov,500483,RO,45.63837,25.65797,(Unknown Operator),Operational,1,CCS (Type 2),2025-10-11 05:38:00+00:00
462100,Ultra Fast LCT Charge ,"Sanpetru, Zaharia Barsan 6A",Brasov,Brasov,507190,RO,45.68852847031016,25.621068187806145,(Unknown Operator),Operational,1,CCS (Type 2),2025-10-11 05:12:00+00:00
462098,Wawa Supercharger,1031 US 250,Staunton,VA ,,US,38.13392236471498,-79.0443370772536,Tesla (including non-tesla),Operational,1,NACS / Tesla Supercharger,2025-10-11 00:06:00+00:00
462096,Paddle Espirit,c. Pirotecnia,madrid,,,ES,40.39622765626089,-3.5908804824382514,Eranovum (ES),Operational,3,CCS (Type 2)|CCS (Type 2)|Type 2 (Socket Only),2025-10-10 18:36:00+00:00
462095,Repsol Pinto,Pinto,Pinto,,,ES,40.24637580885917,-3.6894885121541847,Repsol - Ibil (ES),Operational,3,CCS (Type 2)|CHAdeMO|Type 2 (Tethered Connector) ,2025-10-10 18:29:00+00:00
462094,K-Flex ,Getafe,Getafe,,,ES,40.2774361790766,-3.701656595158397,(Business Owner at Location),Operational,1,Type 2 (Socket Only),2025-10-10 18:25:00+00:00
462093,Ahorramas Getefe,Getafe,Getafe,,,ES,40.30744740319852,-3.730771931457639,EDP,Operational,1,Type 2 (Socket Only),2025-10-10 18:23:00+00:00
462092,Lidl Leganés,Leganés,Leganés,,,ES,40.329115145515885,-3.742518222521312,Lidl,Operational,1,Type 2 (Socket Only),2025-10-10 18:21:00+00:00
462091,Laguna de Pétrola (Corral-Rubio),Corral-Rubio,Corral-Rubio,,,ES,38.835980586214845,-1.4615291440852616,(Unknown Operator),Operational,1,Type 2 (Socket Only),2025-10-10 18:08:00+00:00
462090,Campig Sierra María,Alfahuara,Alfahuara,,,ES,37.70912000177735,-2.2368818615988175,(Business Owner at Location),Operational,1,CEE 7/4 - Schuko - Type F,2025-10-10 18:04:00+00:00
462089,Casa Eural Mi Abuela María,Agua de Enmedio,Agua de Enmedio,,,ES,37.07044316379394,-1.8639687810969008,(Business Owner at Location),Operational,1,Type 2 (Socket Only),2025-10-10 17:59:00+00:00
462088,Macenas Resort,Mojácar,Mojácar,,,ES,37.08350487447015,-1.8523127003275024,(Business Owner at Location),Operational,1,Type 2 (Socket Only),2025-10-10 17:57:00+00:00
462087,Lidl Garrucha,Garrucha,Garrucha,,,ES,37.174265566330575,-1.8255147771045583,Lidl,Operational,1,Type 2 (Socket Only),2025-10-10 17:54:00+00:00
462086,Camping Taiga,Palomares,Palomares,,,ES,37.2371440687796,-1.7994569154482178,(Business Owner at Location),Operational,1,Type 2 (Socket Only),2025-10-10 17:51:00+00:00
462085,Casa Rural Aloe-Vera,Huércal,Huércal,,,ES,37.39935719635143,-1.9889193425663052,(Business Owner at Location),Operational,1,CEE 7/4 - Schuko - Type F,2025-10-10 17:48:00+00:00
462084,Consum Albox,Albox,Albox,,,ES,37.38647767756137,-2.1418282788899887,(Business Owner at Location),Operational,1,Type 2 (Socket Only),2025-10-10 17:46:00+00:00
462083,Fontalmanzora S.L.,Albox,Albox,,,ES,37.3738391619638,-2.1285104685356373,(Business Owner at Location),Operational,1,Type 2 (Socket Only),2025-10-10 17:44:00+00:00
462082,Piscinas Municipales Macael,Macael,Macael,,,ES,37.33825427607762,-2.3010617887382523,Electromaps,Operational,1,Type 2 (Socket Only),2025-10-10 17:42:00+00:00
462081,McDonnell's SuperValu Santry,Lorcan Ave,Beaumont,,Dublin 9,IE,53.391797294663434,-6.235253281430573,ESB Ecars,Operational,1,CCS (Type 2),2025-10-10 17:39:00+00:00
462080,Area Caravanas Puerto Lumbreras,Puerto Lumbreras,Puerto Lumbreras,,,ES,37.57379071892963,-1.7972444732034774,(Business Owner at Location),Operational,1,CEE 7/4 - Schuko - Type F,2025-10-10 17:39:00+00:00
462079,Parking Huerto de la Rueda,Lorca,Lorca,,,ES,37.673847079294504,-1.689024034611066,Iberdrola | BP Pulse (ES),Operational,1,Type 2 (Socket Only),2025-10-10 17:36:00+00:00
462078,CamperStop,Las Canales,Las Canales,,,ES,37.70470321441118,-1.763357521592411,(Business Owner at Location),Operational,1,CEE 7/4 - Schuko - Type F,2025-10-10 17:34:00+00:00
462077,Hotel Bajo El Cejo,El Berro,El Berro,,,ES,37.88916727428007,-1.4899773914924026,(Business Owner at Location),Operational,1,Type 2 (Socket Only),2025-10-10 17:32:00+00:00
462076,Camping Sierra Espuña,El Berro,El Berro,,,ES,37.888630521980176,-1.4930401513013294,(Business Owner at Location),Operational,1,CEE 7/4 - Schuko - Type F,2025-10-10 17:31:00+00:00
462075,Camping Los Madriles,Mazarrón,Mazarrón,,,ES,37.580670736181574,-1.195640843314436,(Business Owner at Location),Operational,1,CEE 7/4 - Schuko - Type F,2025-10-10 17:28:00+00:00
462074,Camping Las Torres,Mazarrón,Mazarrón,,,ES,37.58976654758342,-1.229529436527173,(Business Owner at Location),Operational,1,CEE 7/4 - Schuko - Type F,2025-10-10 17:27:00+00:00
462073,Parking de las Flores,Cartagena,Cartagena,,,ES,37.601907469548834,-0.9834839093056188,(Business Owner at Location),Operational,1,Type 2 (Socket Only),2025-10-10 17:24:00+00:00
462072,Parking Disuasorio Mandarache,Cartagena,Cartagena,,,ES,37.61712247790632,-0.9852761899754796,(Unknown Operator),Operational,1,Type 2 (Socket Only),2025-10-10 17:20:00+00:00
462071,Ayunt. Cartagena. La Palma,La Palma,Cartagena,,,ES,37.689443849418,-0.9625624964614872,Iberdrola | BP Pulse (ES),Operational,1,Type 2 (Socket Only),2025-10-10 17:15:00+00:00
462070,Camping Mar Menor,San Javier,San Javier,,,ES,37.7697940794246,-0.8142627137430054,(Business Owner at Location),Operational,1,CEE 7/4 - Schuko - Type F,2025-10-10 17:12:00+00:00
462069,Camping Los Narejos,Los Narejos,Los Narejos,,,ES,37.76311035612882,-0.8307876078342815,(Business Owner at Location),Operational,1,CEE 7/4 - Schuko - Type F,2025-10-10 17:11:00+00:00
462068,Universidad de Murcia,San Javier,San Javier,,,ES,37.810728955233586,-0.8071291218806209,(Unknown Operator),Operational,1,Type 2 (Socket Only),2025-10-10 17:08:00+00:00
462067,Cepsa Pilar de la Horadada,Pilar de la Horadada,Pilar de la Horadada,,,ES,37.871242619652165,-0.8005739482995295,CEPSA (ES),Planned For Future Date,1,CCS (Type 2),2025-10-10 17:06:00+00:00
462066,Las Ramblas Golf,La Zenia,Torrevieja,,,ES,37.91707460878966,-0.7740051744257244,(Business Owner at Location),Operational,1,Type 2 (Socket Only),2025-10-10 17:03:00+00:00
462065,Gasolinera Alcampo,La Zenia,Torrevieja,,,ES,37.929533496617,-0.7377650493646115,Iberdrola | BP Pulse (ES),Operational,1,CCS (Type 2),2025-10-10 17:00:00+00:00
462064,Camping Palm-Mar,Torrevieja,Torrevieja,,,ES,38.07224232135363,-0.6525807632426677,(Business Owner at Location),Operational,1,CEE 7/4 - Schuko - Type F,2025-10-10 16:53:00+00:00
462063,Hiperber Cox,cox,Cox,,,ES,38.14607194199874,-0.8886473444545118,Iberdrola | BP Pulse (ES),Operational,1,CCS (Type 2),2025-10-10 16:47:00+00:00
462062,Lidl Los Cipreses,Cobatillas,Cobatillas,,,ES,38.04855923612186,-1.0866090781504454,Lidl,Operational,1,Type 2 (Socket Only),2025-10-10 16:40:00+00:00
462061,Lineage Spain Transportation,Las Torres de Cotillaa,Las Torres de Cotillaa,,,ES,38.03104288773315,-1.235799585786367,Electromaps,Operational,1,CCS (Type 2),2025-10-10 16:37:00+00:00
462060,E.S. Mill Services,Los Torraos,Murcia,,,ES,38.094258049518146,-1.2877423173540592,(Business Owner at Location),Not Operational,2,CCS (Type 2)|Type 2 (Socket Only),2025-10-10 16:33:00+00:00
462059,Ayunt. Villanueva del Río Segura,Villanueva del Río Segura,Villanueva del Río Segura,,,ES,38.13693709595762,-1.3239864541291126,Iberdrola | BP Pulse (ES),Operational,1,Type 2 (Socket Only),2025-10-10 16:30:00+00:00
462058,Camping La Rafa,Bullas,Bullas,,,ES,38.036347783234675,-1.6702067479182006,(Business Owner at Location),Operational,1,CEE 7/4 - Schuko - Type F,2025-10-10 16:26:00+00:00
462057,Plenitude Casal Borsetti,Via Don Giovanni Lazzarotto 28,Ravenna,RA,,IT,44.551965,12.279677,Be Charge (Italy),Operational,1,Type 2 (Socket Only),2025-10-10 16:26:00+00:00
462056,Complejo Rural La Atalaya,Cieza,Cieza,,,ES,38.2352280619925,-1.433097109395476,(Business Owner at Location),Operational,1,CEE 7/4 - Schuko - Type F,2025-10-10 16:25:00+00:00
462055,Camping Los Viveros. Calasparra,Calasparra,Calasparra,,,ES,38.25521494879027,-1.7184823107040756,(Business Owner at Location),Operational,1,CEE 7/4 - Schuko - Type F,2025-10-10 16:22:00+00:00
462054,Camping el Tranqilo,Pinoso,Pinoso,,,ES,38.40950155104309,-1.086875946669238,(Business Owner at Location),Operational,1,CEE 7/4 - Schuko - Type F,2025-10-10 16:17:00+00:00
462053,Parking Avda. Las Naciones,Alicante,Alicante,,,ES,38.3701935734054,-0.4204377926225788,Iberdrola | BP Pulse (ES),Operational,1,Type 2 (Socket Only),2025-10-10 16:11:00+00:00
462052,Hiperber Elda,Elda,Elda,,,ES,38.47134923249757,-0.7961914240660235,Iberdrola | BP Pulse (ES),Operational,1,CCS (Type 2),2025-10-10 15:55:00+00:00
462051,Electro Parking Meca,Ayora,Ayora,,,ES,39.0605564227196,-1.0533755049671072,(Business Owner at Location),Operational,1,Type 2 (Socket Only),2025-10-10 15:49:00+00:00
462050,Trugo - Shell Damlama Kuzey OHT ,Tarsus/Mersin ,,,,TR,37.136686663143266,34.85539624727028,Trugo (TR),Operational,1,CCS (Type 2),2025-10-10 14:15:00+00:00
462049,Trugo - Pelit Taşpınar Çamalan Dinlenme T.,Tarsus/Mersin ,,,,TR,37.19541670642212,34.839537166766036,Trugo (TR),Operational,1,CCS (Type 2),2025-10-10 14:13:00+00:00
462048,ZES - Taşpınar Tesisleri Pozantı ,Pozantı/Adana ,,,,TR,37.29535872419447,34.74632252529318,ZES,Operational,1,CCS (Type 2),2025-10-10 14:12:00+00:00
462047,En Yakıt - İpekyolu Tesisleri ,Ulukışla/Niğde,,,,TR,37.59043299550578,34.74806049060987,En Yakıt (TR),Operational,1,CCS (Type 2),2025-10-10 14:09:00+00:00
462046,En Yakıt - İpekyolu Tesisleri 2 ,Ulukışla/Niğde,,,,TR,37.59119798011277,34.747752488464016,En Yakıt (TR),Operational,1,CCS (Type 2),2025-10-10 14:08:00+00:00
462045,Trugo - Kırkgeçit İpekyolu Dinlenme T. ,Ulukışla/Niğde,,,,TR,37.59161451179117,34.74743031115713,Trugo (TR),Operational,1,CCS (Type 2),2025-10-10 14:07:00+00:00
462044,AstorŞarj - Başmakçı Dinleme T.,Ulukışla/Niğde,,,,TR,37.654604487852424,34.701460166804964,Astor Şarj (TR),Operational,1,CCS (Type 2),2025-10-10 14:05:00+00:00
462043,ZES - Demireller Başmakçı Dinlenme T. ,Ulukışla/Niğde,,,,TR,37.65423379405168,34.701584075082565,ZES,Operational,1,CCS (Type 2),2025-10-10 14:04:00+00:00
462042,ZES - Demireller Başmakçı Dinlenme T.,Ulukışla/Niğde,,,,TR,37.652716433772696,34.70157915968457,ZES,Operational,1,CCS (Type 2),2025-10-10 14:03:00+00:00
462041,AstorŞarj - Demireller Dinlenme T. ,Küme 1 Tarsus Ulukışla/Niğde ,,,,TR,37.65223601548466,34.69929437069561,Astor Şarj (TR),Operational,1,CCS (Type 2),2025-10-10 14:01:00+00:00
462040,AstorŞarj - Ereğli Başak Park ,Çakmak Konya Ereğli 2408 Ereğli/Konya ,,,,TR,37.63282735800047,34.30632883614396,Astor Şarj (TR),Operational,1,CCS (Type 2),2025-10-10 13:58:00+00:00
462039,En Yakıt - Ramada By Wyndham Karapınar,Ulus Konya Ereğli Ereğli/Konya,,,,TR,37.71391509604744,33.56947801122374,En Yakıt (TR),Operational,1,CCS (Type 2),2025-10-10 13:53:00+00:00
462038,Karbon Nötr Konya - Odabaşı Tarım ,Karatay/Konya ,,,,TR,37.85633639425296,32.64179084359375,(Unknown Operator),Operational,1,Type 2 (Socket Only),2025-10-10 13:50:00+00:00
462037,Eşarj - RTM Tarım Konya ,Karatay/Konya ,,,,TR,37.85899881515323,32.62456793845524,Eşarj (TR),Operational,1,CCS (Type 2),2025-10-10 13:48:00+00:00
462036,Monokon Elektrik - Hasan Kulu Orman Ürünleri ,Karatay/Konya,,,,TR,37.85380310180997,32.66421205018992,(Unknown Operator),Operational,1,CCS (Type 2),2025-10-10 13:44:00+00:00
462035,ZES - Karatay Termal Otel ,21867 Karatay/Konya,,,,TR,37.733788687014226,33.0548995807485,ZES,Operational,1,Type 2 (Socket Only),2025-10-10 13:41:00+00:00
462034,Trugo - Karatay Termal Otel ,21886 Karatay/Konya,,,,TR,37.734373399037125,33.05502505494269,Trugo (TR),Operational,1,CCS (Type 2),2025-10-10 13:40:00+00:00
462033,WAT Mobilite - Opet ,Adalet Konya Ereğli Karapınar/Konya,,,,TR,37.716677078080465,33.48891791002461,WAT Mobilite,Operational,2,CCS (Type 2)|CCS (Type 2),2025-10-10 13:38:00+00:00
462032,Trugo - Shell Karapınar ,Gazi Osman Paşa Konya Ereğli Karapınar/Konya,,,,TR,37.7136396877744,33.4249787600196,Trugo (TR),Operational,1,CCS (Type 2),2025-10-10 13:34:00+00:00
462031,Hotel Palacio Albacete,Albacete,Albacete,,,ES,39.013564546188945,-1.8696973641358456,(Business Owner at Location),Operational,1,CEE 7/4 - Schuko - Type F,2025-10-10 13:33:00+00:00
462030,Otojet - Alp Akaryakıt Konya ,Fevzi Paşa Konya Ereğli 925/A Karapınar/Konya,,,,TR,37.71290071196387,33.38498410243494,Otojet,Operational,1,CCS (Type 2),2025-10-10 13:32:00+00:00
462028,Consum Albacete,Albacete,Albacete,,,ES,39.00066536836161,-1.856157936705472,(Business Owner at Location),Operational,1,Type 2 (Socket Only),2025-10-10 13:28:00+00:00
462027,El Corte Inglés Albacete,Albacete,Albacete,,,ES,38.98253085635059,-1.8542152246355952,(Business Owner at Location),Operational,1,Type 2 (Tethered Connector) ,2025-10-10 13:22:00+00:00
462026,Trugo - Ladik Shell İstasyonu,Ladik Sarayönü/Konya,,,,TR,38.2084673167553,32.37502920521183,Trugo (TR),Operational,1,CCS (Type 2),2025-10-10 13:18:00+00:00
462025,Trugo - Ilgın Ticaret Borsası,Müftü Beyşehir 32/A Ilgın/Konya,,,,TR,38.29026328617349,31.919379842032413,Trugo (TR),Operational,1,CCS (Type 2),2025-10-10 13:16:00+00:00
462024,Repsol Madrigueras,Madrigueras,Madrigueras,,,ES,39.23285302000579,-1.800199828129962,Repsol - Ibil (ES),Planned For Future Date,3,CCS (Type 2)|CHAdeMO|Type 2 (Tethered Connector) ,2025-10-10 13:15:00+00:00
462023,WAT Mobilite - Opet Koçlar,İstasyon yeni 1710 Ilgın/Konya,,,,TR,38.287528036838296,31.901851036855305,WAT Mobilite,Operational,2,CCS (Type 2)|Type 2 (Socket Only),2025-10-10 13:14:00+00:00
462022,Trugo - Shell Kozağaç,Kozağaç 1 Akşehir/Konya,,,,TR,38.379797667243935,31.420776687343164,Trugo (TR),Operational,1,CCS (Type 2),2025-10-10 13:11:00+00:00
462021,Hotel Spa Eliá,Alcalá del Jucar,Alcalá del Jucar,,,ES,39.197664576493594,-1.4234353657491283,(Business Owner at Location),Operational,1,Type 2 (Socket Only),2025-10-10 13:11:00+00:00
462020,Eşarj - Nallar Petrol ,Yeşilevler Çay/Afyonkarahisar,,,,TR,38.5914049224892,31.056066271099898,Eşarj (TR),Operational,1,CCS (Type 2),2025-10-10 13:09:00+00:00
462019,Consum Casas de Ibáñez,Casas de Ibáñez,Casas de Ibáñez,,,ES,39.284729652148485,-1.4727170832918546,Iberdrola | BP Pulse (ES),Operational,2,CCS (Type 2)|CHAdeMO,2025-10-10 13:07:00+00:00
462018,Trugo - Köfteci Yusuf - Çay,Ahmet Kaleli Yaşar Çengel 137 Çay/Afyonkarahisar,,,,TR,38.596577013857285,30.9940823154559,Trugo (TR),Operational,1,CCS (Type 2),2025-10-10 13:07:00+00:00
462017,ZES - Nebioğlu Akaryakıt,Elbiz Mustafa Kızıloğlu 26 Çay/Afyonkarahisar,,,,TR,38.594962634360314,30.984305967547694,ZES,Operational,2,CCS (Type 2)|Type 2 (Socket Only),2025-10-10 13:04:00+00:00
462016,WAT Mobilite - Opet Dempet Demireller Petrol,Cumhuriyet Köyü 102 Çay/Afyonkarahisar,,,,TR,38.59044550000456,30.95283063469151,WAT Mobilite,Operational,1,CCS (Type 2),2025-10-10 13:02:00+00:00
462014,Ayunt. Enguidanos,Enguidanos,Enguidanos,,,ES,39.673874790043556,-1.608223626454219,(Unknown Operator),Operational,1,Type 2 (Socket Only),2025-10-10 12:52:00+00:00
462013,Hotel NH Ciudad de Cuenca,Cuenca,Cuenca,,,ES,40.06197343300042,-2.132476135657498,(Business Owner at Location),Operational,1,CEE 7/4 - Schuko - Type F,2025-10-10 12:48:00+00:00
462012,Residencia AMAVIR EL Pinar,Cuenca,Cuenca,,,ES,40.08418505323544,-2.2108969769886926,Endesa,Operational,1,Type 2 (Socket Only),2025-10-10 12:43:00+00:00
462011,Hotel Portón de la Sierra,Orea,Orea,,,ES,40.555511738091695,-1.7221037595114694,(Business Owner at Location),Operational,1,CEE 7/4 - Schuko - Type F,2025-10-10 12:40:00+00:00
462010,Hotel Spa Ciudad de Teruel,Teruel,Teruel,,,ES,40.35763354359278,-1.1351992415645782,(Business Owner at Location),Operational,1,CEE 7/4 - Schuko - Type F,2025-10-10 12:37:00+00:00
462009,AstorŞarj - Yükselhan Hotel ,Özal Viranşehir/Şanlıurfa,,,,TR,37.22778557976295,39.77312610148124,Astor Şarj (TR),Operational,1,Type 2 (Socket Only),2025-10-10 12:31:00+00:00
462008,AstorŞarj - Yükselhan Hotel,Özal Viranşehir/Şanlıurfa,,,,TR,37.22779170184453,39.77299243587845,Astor Şarj (TR),Operational,1,CCS (Type 2),2025-10-10 12:30:00+00:00
462007,Eşarj - Kadoil ,Burç Demirciyolu Viranşehir/Şanlıurfa,,,,TR,37.260822611710225,39.76924516373299,Eşarj (TR),Operational,1,CCS (Type 2),2025-10-10 12:29:00+00:00
462006,Repsol Daroca,Daroca,Daroca,,,ES,41.11721116224538,-1.406109503856328,Repsol - Ibil (ES),Planned For Future Date,3,CCS (Type 2)|CHAdeMO|Type 2 (Tethered Connector) ,2025-10-10 12:27:00+00:00
462005,Otojete - Palmanak,Yenişehir E-90-1 71/1 Viranşehir/Şanlıurfa ,,,,TR,37.2260146301451,39.73569297869119,Otojet,Operational,1,CCS (Type 2),2025-10-10 12:26:00+00:00
462004,SOLARGIZE - Şanlıurfa 02 - GO ,urfa yolu 5km viranşehir/şanlıurfa,,,,TR,37.23020416080456,39.69327922471882,(Unknown Operator),Operational,1,CCS (Type 2),2025-10-10 12:23:00+00:00
462003,AstorŞarj - Birecik Park Mirkelam ,Kocaeli Kulaksız E90 Birecik/Şanlıurfa,,,,TR,37.098132274153585,38.1893735215142,Astor Şarj (TR),Operational,1,CCS (Type 2),2025-10-10 12:19:00+00:00
462002,AstorŞarj - Birecik Park Mirkelam,Kocaeli Kulaksı E90 Birecik/Şanlıurfa,,,,TR,37.10030004240373,38.18972008767639,Astor Şarj (TR),Operational,1,CCS (Type 2),2025-10-10 12:18:00+00:00
462001,En Yakıt - G.Antep Yönü - Park Hayat,Örcünlü İnanlı 187/4 Karaköprü/Şanlıurfa,,,,TR,37.19781580814197,38.56220856219932,En Yakıt (TR),Operational,1,CCS (Type 2),2025-10-10 12:15:00+00:00
462000,En Yakıt - Şanlıurfa Yönü - Park Hayat,Örcünlü İnanlı 187/4 Karaköprü/Şanlıurfa,,,,TR,37.19576592866535,38.562690134664535,En Yakıt (TR),Operational,1,CCS (Type 2),2025-10-10 12:14:00+00:00
461999,AstorŞarj - Şanlıurfa Yönü - Park Hayat ,Örcünlü Karaköprü/Şanlıurfa,,,,TR,37.19664288979139,38.56276538036002,Astor Şarj (TR),Operational,1,CCS (Type 2),2025-10-10 12:12:00+00:00
461998,Ayunt. Tabuenca,Tabuenca,Tabuenca,,,ES,41.69221168460956,-1.5443714287650891,Electromaps,Operational,1,Type 2 (Socket Only),2025-10-10 11:03:00+00:00
461997,Ayunt. Calatayud. Pabellón Polideportivo,Calatayud,Calatayud,,,ES,41.35240516707614,-1.6490725114178986,Iberdrola | BP Pulse (ES),Operational,1,Type 2 (Tethered Connector) ,2025-10-10 10:51:00+00:00
461995,Hostal-Restaurante Villa de Brihuega,Brihuega,Brihuega,,,ES,40.76232060859303,-2.869375106542975,(Business Owner at Location),Operational,1,Type 2 (Socket Only),2025-10-10 09:53:00+00:00
461994,Bar Renera Pit Stop,Renera,Renera,,,ES,40.49145082070379,-3.016019438981971,(Business Owner at Location),Operational,1,Type 2 (Socket Only),2025-10-10 09:33:00+00:00
461993,Hospital Universitario de Guadalajara,Guadalajara,Guadalajara,,,ES,40.61971437579686,-3.1535966967717286,(Business Owner at Location),Not Operational,1,Type 2 (Socket Only),2025-10-10 09:24:00+00:00
461992,Garraposa S.L.,Guadalajara,Guadalajara,,,ES,40.621651260244505,-3.1643262958579044,(Business Owner at Location),Operational,1,Type 2 (Tethered Connector) ,2025-10-10 09:22:00+00:00
461991,Hotel Guadalajara & Conference Center Affiliated by Meliá ,Guadalajara,Guadalajara,,,ES,40.62107739262373,-3.1619594123485513,(Business Owner at Location),Operational,1,Type 2 (Tethered Connector) ,2025-10-10 09:20:00+00:00
461990,Ballenoil Guadalajara,Guaalajara,Guadalajara,,,ES,40.63265952367101,-3.182714852406889,Ballenoil (ES),Planned For Future Date,1,CCS (Type 2),2025-10-10 09:11:00+00:00
461989,Solfix,Azuqueca,Azuqueca,,,ES,40.600789524661934,-3.2183532719118375,(Business Owner at Location),Operational,1,Type 2 (Socket Only),2025-10-10 09:08:00+00:00
461988,Polig. Azuqueca,Azuqueca,Azuqueca,,,ES,40.55487788153292,-3.269792860020516,(Business Owner at Location),Operational,1,Type 2 (Socket Only),2025-10-10 08:58:00+00:00
461987,Carrefour Vía Complutense,Alcalá,Alcalá,,,ES,40.487259655437214,-3.3609332830166068,(Business Owner at Location),Operational,1,Type 2 (Socket Only),2025-10-10 08:55:00+00:00
461986,Peugeot Alcalá,Alcalá,Alcalá,,,ES,40.49047459718293,-3.3536988401853023,(Business Owner at Location),Operational,1,Type 2 (Socket Only),2025-10-10 08:53:00+00:00
461985,Universidad de Alcalá,Alcalá,Alcalá,,,ES,40.512659112542366,-3.350615407894906,(Business Owner at Location),Operational,1,Type 2 (Socket Only),2025-10-10 08:45:00+00:00
461984,Prologics Logistics Alcalá,Alcalá,Alcalá,,,ES,40.48489789265531,-3.4100120557401397,(Business Owner at Location),Operational,1,Type 2 (Socket Only),2025-10-10 08:37:00+00:00
461983,Cementerio Jardín de Alcalá de Henares - Tanatorio,Alcalá de Henares,Alcalá de Henares,,,ES,40.46210880230723,-3.362888811969924,(Unknown Operator),Operational,1,Type 2 (Socket Only),2025-10-10 08:31:00+00:00
461982,Talleres Jota Car,Velilla de San Antonio,Velilla de San Antonio,,,ES,40.356798529192616,-3.4756077973677293,(Business Owner at Location),Operational,1,Type 2 (Socket Only),2025-10-10 08:24:00+00:00
461981,Ayunt. Rivas Vaciamadrid - Av. Aurelio Álvarez,Av. Aurelio Álvarez,Rivas Vaciamadrid ,,,ES,40.343067607300526,-3.5191835330506365,Electromaps,Operational,2,Type 2 (Socket Only)|CEE 7/4 - Schuko - Type F,2025-10-10 07:27:00+00:00
461980,Ballenoil Barajas,Barajas,Barajas,,,ES,40.46919433333312,-3.590458820090589,Ballenoil (ES),Planned For Future Date,1,CCS (Type 2),2025-10-10 07:21:00+00:00
461979,Transahaer,Poligono,Torrejón,,,ES,40.43951957620362,-3.49017095450688,(Business Owner at Location),Operational,1,Type 2 (Socket Only),2025-10-10 07:16:00+00:00
461978,Polígono Coslada,Coslada,Coslada,,,ES,40.431961476046325,-3.551299554534012,(Business Owner at Location),Operational,1,Type 2 (Socket Only),2025-10-10 07:15:00+00:00
461977,Polígono Coslada,Coslada,Coslada,,,ES,40.432900797386566,-3.550875151075161,(Business Owner at Location),Operational,1,Type 2 (Socket Only),2025-10-10 07:14:00+00:00
461976,Hotel AC Coslada Aeropuero,Barajas,Barajas,,,ES,40.4450493466843,-3.5407418403391375,Endesa,Operational,2,CCS (Type 2)|Type 2 (Socket Only),2025-10-10 07:06:00+00:00
461975,Hotel Crowne Plaza Madrid Barajas,Barajas,Barajas,,,ES,40.44684214755412,-3.5422101278077207,(Business Owner at Location),Operational,1,Type 2 (Socket Only),2025-10-10 07:03:00+00:00
461973,E.S. Area 117 Valcarce,Avda. Ronda Sur,Torrejón,,,ES,40.43982339533713,-3.488549755258191,(Business Owner at Location),Operational,1,CCS (Type 2),2025-10-10 06:45:00+00:00
461972,K-in Punto Limpio,C. Verano,Torrejón,,,ES,40.44632426943954,-3.4868646517811612,Ferrovial (ES),Operational,1,Type 2 (Socket Only),2025-10-10 06:42:00+00:00
461971,Indra Vidrieros,C. Vidrieros,Torrejón,,,ES,40.44583300227157,-3.490103377794526,Wenea,Operational,1,Type 2 (Socket Only),2025-10-10 06:39:00+00:00
461970,Electra,Passeig dels Ferrocarrils Catalans 240,Cornellà,Barcelona,08940,ES,41.353660132213605,2.0927161327708745,Electra,Not Operational,1,CCS (Type 2),2025-10-09 23:56:00+00:00
461969,WAT Opet Egesan,D550 yenikarakuyu yatağan,,,48500,TR,37.28262347497318,28.19232773772444,WAT Mobilite,Operational,1,CCS (Type 2),2025-10-09 16:21:00+00:00
461968,WAT Opet HAS Petrol,kızılağaç mahallesi,muğla,,48000,TR,37.09830077707831,28.379015013097955,WAT Mobilite,Operational,1,CCS (Type 2),2025-10-09 16:17:00+00:00
461967,C. C. Nueva Condomina ( Tesla Dest. Chargers),Murcia,Murcia,,,ES,38.03841266581924,-1.1498934048742058,(Business Owner at Location),Operational,1,Type 2 (Tethered Connector) ,2025-10-09 12:54:00+00:00
461966,C. C Nueva Condomina (Tesla Destination chargers),Murcia,Murcia,,,ES,38.0382316243107,-1.149323663253199,(Business Owner at Location),Operational,1,Type 2 (Tethered Connector) ,2025-10-09 12:49:00+00:00
461965,Ewiva Largo Alpone,Largo Alpone,San Bonifacio,VR,37047,IT,45.39325671664838,11.270398179164433,Ewiva (IT),Operational,1,CCS (Type 2),2025-10-09 12:40:00+00:00
461964,Kennington Village Shopping Centre,Condon St,Bendigo,Victoria,3550,AU,-36.77522424001277,144.305953060746,(Unknown Operator),Operational,1,CCS (Type 2),2025-10-09 01:38:00+00:00
461963,La Trobe University Bendigo,Car Park 1,Bendigo,Victoria,,AU,-36.778689772739966,144.30153718662336,(Unknown Operator),Operational,1,CCS (Type 2),2025-10-09 01:27:00+00:00
461962,vkw Ladepark,Weidachstraße 6,Bregenz,Vorarlberg,6900,AT,47.48836038967238,9.740332044320894,Vlotte,Operational,2,CCS (Type 2)|CCS (Type 2),2025-10-08 22:49:00+00:00
461961,Anew Hotel,"104 Main Rd, Hluhluwe, 3960",,,,ZA,-28.016992100022343,32.26692167021838,(Unknown Operator),Operational,2,CCS (Type 2)|Type 2 (Socket Only),2025-10-08 20:39:00+00:00
461960,Marassem Station 5,North 90,New Cairo,,,EG,30.05281763264847,31.535319112914493,TAQA Volt (EG),Operational,1,CCS (Type 2),2025-10-08 18:39:00+00:00
461959,ZES - Holiday Inn İstanbul Old City ,Kemal Paşa Şirvanizade 7 Fatih/İstanbul ,,,,TR,41.01202921906997,28.954999885892903,ZES,Operational,1,CCS (Type 2),2025-10-08 11:58:00+00:00
461958,Royal - Mitte Port Otopark,Binbirdirek Peykhane 2 Fatih/İstanbul ,,,,TR,41.007815201274326,28.97148202585845,(Unknown Operator),Operational,1,CCS (Type 2),2025-10-08 11:56:00+00:00
461957,ZES - Radisson Hotel President ,Beyazıt Tiryaki 25 Fatih/İstanbul ,,,,TR,41.00760235937963,28.96565446288571,ZES,Operational,1,Type 2 (Socket Only),2025-10-08 11:54:00+00:00
461956,Torremolinos - Aparcamiento Los Palacios,Calle Río Guadalope,Torremolinos,Malaga,,ES,36.62951686289526,-4.501271790249916,(Unknown Operator),Not Operational,1,Type 2 (Socket Only),2025-10-08 11:49:00+00:00
461955,Efish - Radisson Hotel İstanbul Sultanahmet,Sultanahmet Kennedy 12 Fatih/İstanbul,,,,TR,41.00333038296634,28.981598849584657,(Unknown Operator),Operational,1,Type 2 (Socket Only),2025-10-08 11:49:00+00:00
461954,ZES - Kalyon Otel,Sultanahmet Kennedy 34 Fatih/İstanbul,,,,TR,41.003083291522984,28.980696102856655,ZES,Operational,1,Type 2 (Socket Only),2025-10-08 11:46:00+00:00
461953,Torremolinos - Avenida de los Manantiales,Avenida de los Manantiales,Torremolinos,Malaga,,ES,36.625473232642335,-4.501124018679775,(Unknown Operator),Not Operational,1,Type 2 (Socket Only),2025-10-08 11:45:00+00:00
461952,ZES - Allianz İzmir,Fatih Sanayi 35 Gaziemir/İzmir,,,,TR,38.30362288772855,27.17206597329141,ZES,Operational,1,Type 2 (Socket Only),2025-10-08 11:43:00+00:00
461951,ZES - Double Tree by Hilton Airport,Fatih Ege 4/A Gaziemir/İzmir,,,,TR,38.30785083786333,27.15900940382244,ZES,Operational,1,Type 2 (Socket Only),2025-10-08 11:41:00+00:00
461950,Lidl,Avenue des Vieux  Moulins 5,Annecy,,,FR,45.88832494901348,6.115381980711163,Lidl,Operational,2,CCS (Type 2)|Type 2 (Socket Only),2025-10-08 11:34:00+00:00
461949,Convento Magdalena,Urb. Antequera Golf Finca de la Magdalena,Antequera,Malaga,,ES,37.00424122005414,-4.605002197823865,eTecnic,Not Operational,1,Type 2 (Socket Only),2025-10-08 10:57:00+00:00
461948,Antequera Golf,Urb. Antequera Golf,Antequera,Malaga,,ES,37.01718485386213,-4.5996420408714584,(Unknown Operator),Not Operational,1,Type 2 (Socket Only),2025-10-08 10:51:00+00:00
461947,Ferienhof Feinen,Brunnenstraße 6,Fleringen,,54597,DE,50.20695240481828,6.499634696054272,(Unknown Operator),Operational,1,Type 2 (Tethered Connector) ,2025-10-08 10:36:00+00:00
461946,Abasthosur,Avenida Principal,Antequera,Malaga,,ES,37.02479588876013,-4.536345826304569,(Unknown Operator),Operational,1,Type 2 (Socket Only),2025-10-08 10:01:00+00:00
461945,Mercaoleo,A-7281,Antequera,Malaga,,ES,37.03755151238484,-4.56227165078576,(Unknown Operator),Operational,1,Type 2 (Tethered Connector) ,2025-10-08 09:52:00+00:00
461944,Dcoop,A-7281,Antequera,Malaga,,ES,37.03494893902929,-4.561811011565169,(Unknown Operator),Operational,1,Type 2 (Tethered Connector) ,2025-10-08 09:49:00+00:00
461943,Centro Logístico Mercadona Antequera,Calle Navarra,Antequera,Malaga,,ES,37.038339012576046,-4.529447218773157,(Unknown Operator),Operational,1,Type 2 (Socket Only),2025-10-08 09:41:00+00:00
461942,Shell Antequera,A-45,Antequera,Malaga,,ES,37.04496020385509,-4.512032859691317,Shell Recharge (ES) (Cable Energia),Not Operational,1,CCS (Type 2),2025-10-08 09:35:00+00:00
461941,C. C. La Verónica,Calle Cuesta Talavera,Antequera,Malaga,,ES,37.026210889391294,-4.573419650439064,Endesa,Planned For Future Date,2,Type 2 (Socket Only)|CCS (Type 2),2025-10-08 09:32:00+00:00
461940,Añadete Group,Calle Torre del Hacho,Antequera,Malaga,,ES,37.02908464696378,-4.533117498300385,(Unknown Operator),Operational,1,Type 2 (Socket Only),2025-10-08 08:35:00+00:00
461939,Renault Antequera,Calle Residencia de la vega,Antequera,Malaga,,ES,37.026554488313664,-4.538718369936305,(Unknown Operator),Operational,1,Type 2 (Socket Only),2025-10-08 08:29:00+00:00
461938,Renault Antequera,Calle Residencia de la vega,Antequera,Malaga,,ES,37.02687288886118,-4.5385203648770585,(Unknown Operator),Partly Operational (Mixed),1,Type 2 (Socket Only),2025-10-08 08:25:00+00:00
461937,Shopping Gallo,"R. 67-A, St. Central",Goiânia,Goiás,74055045,BR,-16.66168,-49.255057,Yellotmob (Brasil),Operational,2,Type 2 (Tethered Connector) |Type 2 (Tethered Connector) ,2025-10-07 20:51:00+00:00
461936,Catalão Shopping,"R. Jocelim, R. Juscelino Gomes Píres, Nossa Senhora de Fátima",Catalão,Goiás,75709140,BR,-18.172543,-47.927671,Yellotmob (Brasil),Operational,2,CCS (Type 2)|Type 2 (Tethered Connector) ,2025-10-07 20:30:00+00:00
461935,Maria Fumaça,"R. São Genaro, 1000, Solar de Caldas",Caldas Novas,Goiás,75690000,BR,-17.726769,-48.62768,Yellotmob (Brasil),Operational,2,CCS (Type 2)|Type 2 (Tethered Connector) ,2025-10-07 20:25:00+00:00
461934,Lagoa Eco Towers,"Avenida Princesa Isabel, Setor Lagoa Quente",Caldas Novas,Goiás,75690000,BR,-17.694226,-48.587424,Yellotmob (Brasil),Operational,1,Type 2 (Tethered Connector) ,2025-10-07 20:17:00+00:00
461933,Supermercado NSA,"R. R 17, 140, Setor Oeste",Goiânia,Goiás,74125170,BR,-16.6855236,-49.2747571,Yellotmob (Brasil),Operational,1,Type 2 (Tethered Connector) ,2025-10-07 20:02:00+00:00
461932,Arena Botanic,"R. 90, 265, St. Sul",Goiânia,Goiás,74093020,BR,-16.6930259,-49.2522574,Yellotmob (Brasil),Operational,1,Type 2 (Tethered Connector) ,2025-10-07 19:43:00+00:00
461931,Clínica Veterinária Titiu Goiânia,"Av. 4ª Radial, 1732, St. Pedro Ludovico",Goiânia,Goiás,74830130,BR,-16.726037,-49.2622074,Yellotmob (Brasil),Operational,1,Type 2 (Tethered Connector) ,2025-10-07 19:34:00+00:00
461930,Trugo - Shell Çambel ,Çambel Kemalpaşa/İzmir ,,,,TR,38.44814587438685,27.517036508873957,Trugo (TR),Operational,1,CCS (Type 2),2025-10-07 19:28:00+00:00
461929,Life Box Lago Sul,"SCES Trecho 2 Beira Lago, St. de Clubes Esportivos",Brasília,Distrito Federal,70200001,BR,-15.8194607,-47.8353896,Yellotmob (Brasil),Operational,1,CCS (Type 2),2025-10-07 19:27:00+00:00
461928,Eşarj - Daysil Silikon İzmir,Cumhuriyet 9081 55 Kemalpaşa/İzmir,,,,TR,38.47247444231593,27.360157772772254,Eşarj (TR),Operational,1,CCS (Type 2),2025-10-07 19:26:00+00:00
461927,Önizşarj - Galeria AVM Ankara,Mutlukent 2432 97 Çankaya/Ankara,,,,TR,39.89531074542907,32.70393804948799,(Unknown Operator),Operational,2,Type 2 (Socket Only)|CCS (Type 2),2025-10-07 19:16:00+00:00
461926,Trugo - Shell Ümitköy ,Çayyolu Çankaya/Ankara ,,,,TR,39.89463673507231,32.70266617307641,Trugo (TR),Operational,1,CCS (Type 2),2025-10-07 19:14:00+00:00
461925,Eşarj - CarrefourSA Ümitköy,Ümit 2494 1 Çankaya/Ankara,,,,TR,39.89543003688365,32.70192186294821,Eşarj (TR),Operational,2,CCS (Type 2)|CCS (Type 2),2025-10-07 19:12:00+00:00
461924,Eletroposto Marcelo Soyer Fastcharger,"Av. 85, 1049, Setor Sul",Goiânia,Goiás,74080010,BR,-16.6909376,-49.2617464,Yellotmob (Brasil),Operational,2,Type 2 (Tethered Connector) |CCS (Type 2),2025-10-07 19:08:00+00:00
461923,Oncharge - Tübitak Bilgem Yerleşkesi,Ümit Doğan Taşdelen 40 Çankaya/Ankara,,,,TR,39.89879633294771,32.700363267192415,OnCharge (TR),Operational,1,Type 2 (Socket Only),2025-10-07 19:07:00+00:00
461922,Neva Şarj - İstanbul Sosyete Pazarı,Erler Etimesgut/Ankara,,,,TR,39.90582890106856,32.701742077722656,(Unknown Operator),Operational,1,CCS (Type 2),2025-10-07 19:05:00+00:00
461921,e-POwer - Petrol Ofisi Ümitköy,Erler 344 Etimesgut/Ankara,,,,TR,39.90549631950111,32.70354858850021,ePower,Operational,1,Type 2 (Socket Only),2025-10-07 19:04:00+00:00
461920,AstorŞarj - Şa-ra,Ümit 2479 Çankaya/Ankara,,,,TR,39.89929553996373,32.693014368444324,Astor Şarj (TR),Operational,1,CCS (Type 2),2025-10-07 18:57:00+00:00
461919,Trugo - Gordion AVM,Koru Ankaralılar 204/1 Çankaya/Ankara,,,,TR,39.901189445703665,32.69125344244708,Trugo (TR),Operational,1,CCS (Type 2),2025-10-07 18:56:00+00:00
461918,Otojet - Mehmetçik Vakfı Etimesgut,Erler 2715 2 Etimesgut/Ankara,,,,TR,39.9004040815137,32.686881046306326,Otojet,Operational,1,CCS (Type 2),2025-10-07 18:54:00+00:00
461917,AstorŞarj - Ağaçlı BMW Servisi,Erler 2717 A Etimesgut/Ankara,,,,TR,39.900276745037246,32.68384695699933,Astor Şarj (TR),Operational,1,CCS (Type 2),2025-10-07 18:53:00+00:00
461916,Portal Sul Shopping,"Av. Água Limpa, GO 040, Jardins Lisboa",Goiânia,Goiás,74354700,BR,-16.771062,-49.351919,Yellotmob (Brasil),Operational,2,Type 2 (Tethered Connector) |Type 2 (Tethered Connector) ,2025-10-07 18:52:00+00:00
461915,Eşarj - Otomol Etimesgut,Erler 408/a Etimesgut/Ankara,,,,TR,39.8984776034352,32.68383245801374,Eşarj (TR),Operational,1,CCS (Type 2),2025-10-07 18:51:00+00:00
461914,Eşarj - Baykoçlar Otomotiv,Erler 2715 12 Etimesgut/Ankara,,,,TR,39.89796968821773,32.68310448036118,Eşarj (TR),Operational,1,CCS (Type 2),2025-10-07 18:50:00+00:00
461913,Eşarj - Ankara Oto Etimesgut,Erler 424 Etimesgut/Ankara,,,,TR,39.89721454227595,32.68050762310372,Eşarj (TR),Operational,1,CCS (Type 2),2025-10-07 18:49:00+00:00
461912,Interdata - Ekrem Usta Restoran,Erler 22 Etimesgut/Ankara,,,,TR,39.895782618168965,32.67946845114818,(Unknown Operator),Operational,2,Type 2 (Socket Only)|Type 2 (Socket Only),2025-10-07 18:47:00+00:00
461911,Eşarj - Mengerler Ankara,Fatih Sultan 10a/1-2 10b Etimesgut/Ankara,,,,TR,39.894066147795115,32.676707113232965,Eşarj (TR),Operational,3,CHAdeMO|CCS (Type 2)|Type 2 (Socket Only),2025-10-07 18:46:00+00:00
461910,EŞarj - Otosay Otomotiv ,Fatih Sultan 2719 12 Etimesgut/Ankara,,,,TR,39.89387515812632,32.67636712845638,Eşarj (TR),Operational,1,CCS (Type 2),2025-10-07 18:44:00+00:00
461909,CheckPoint - High Life Office,Fatih Sultan Bağlıca Etimesgut/Ankara,,,,TR,39.89378025515802,32.67523173817881,(Unknown Operator),Operational,2,CCS (Type 2)|Type 2 (Socket Only),2025-10-07 18:42:00+00:00
461908,ZES - Türkiye Petrolleri Etimesgut,Bahçekapı Dumlupınar 2510 1 Etimesgut/Ankara,,,,TR,39.8924953802954,32.674498972242645,ZES,Operational,1,Type 2 (Socket Only),2025-10-07 18:40:00+00:00
461907,ERC Sistem - Çağdaş Market Dumlupınar ,Fatih Sultan Dumlupınar 375 Etimesgut/Ankara,,,,TR,39.88676837437154,32.6653928959264,(Unknown Operator),Operational,2,CCS (Type 2)|Type 2 (Socket Only),2025-10-07 18:38:00+00:00
461906,Passeio das Águas Shopping,"Av. Perimetral Norte, 8303",Goiânia,Goiás,74573260,BR,-16.629482,-49.278707,Yellotmob (Brasil),Operational,2,Type 2 (Tethered Connector) |Type 2 (Tethered Connector) ,2025-10-07 18:36:00+00:00
461905,Önizşarj - Azel Urhan Kule ,Konutkent 3029 3 Çankaya/Ankara,,,,TR,39.8766679536738,32.655795942772556,(Unknown Operator),Operational,1,CCS (Type 2),2025-10-07 18:36:00+00:00
461904,5Şarj - Borusan Oto Çayyolu,Konutkent 3028 6 Çankaya/Ankara,,,,TR,39.87881853276909,32.655868392509774,5 Şarj (TR),Operational,3,CCS (Type 2)|CCS (Type 2)|CHAdeMO,2025-10-07 18:34:00+00:00
461903,ZES - Elmar Tower,Konutkent 3028 8/A Çankaya/Ankara,,,,TR,39.87700635647195,32.65306562138642,ZES,Operational,1,Type 2 (Socket Only),2025-10-07 18:31:00+00:00
461902,Önizşarj - Elmar Tower,Konutkent 3028 8A/1 Çankaya/Ankara,,,,TR,39.8768736189447,32.65282655564852,(Unknown Operator),Operational,2,CCS (Type 2)|Type 2 (Socket Only),2025-10-07 18:30:00+00:00
461901,Posto Alpha YellotMob,"Res. Alphaville Flamboyant, 20",Goiânia,Goiás,74884-543,BR,-16.7145363,-49.20163527,Yellotmob (Brasil),Operational,2,CCS (Type 2)|Type 2 (Tethered Connector) ,2025-10-07 18:30:00+00:00
461900,AstorŞarj - Elya Center AVM ,Konutkent Dumlupınar Çankaya/Ankara,,,,TR,39.875122110562586,32.65162764657066,Astor Şarj (TR),Operational,2,CCS (Type 2)|Type 2 (Socket Only),2025-10-07 18:27:00+00:00
461899,ZES - Elya Center AVM,Konutkent Dumlupınar 381 Çankaya/Ankara,,,,TR,39.87540308459495,32.65144805350167,ZES,Operational,1,CCS (Type 2),2025-10-07 18:26:00+00:00
461898,Acropol - Gündoğdu Lezzet Sarayı,Dodruga 5110 8/BA Çankaya/Ankara,,,,TR,39.83809201295381,32.64707247291676,(Unknown Operator),Operational,1,CCS (Type 2),2025-10-07 18:23:00+00:00
461897,EPSIS - 344 Mehmet Usta,Alacaatlı 5084 37 Çankaya/Ankara,,,,TR,39.853667635996146,32.64832270953775,(Unknown Operator),Operational,1,CCS (Type 2),2025-10-07 18:20:00+00:00
461896,Acropol - Sierra Yaşamkent Sitesi,Alacaatlı  35 Çankaya/Ankara,,,,TR,39.85407880230469,32.648429371634506,(Unknown Operator),Operational,2,CCS (Type 2)|Type 2 (Socket Only),2025-10-07 18:17:00+00:00
461895,AstorŞarj - Yaşamkent ,Yaşamkent 3297 1 Çankaya/Ankara,,,,TR,39.85760729235077,32.64550410870936,Astor Şarj (TR),Operational,1,CCS (Type 2),2025-10-07 18:14:00+00:00
461894,ZES - Besa Karina ,Yaşamkent Çankaya/Ankara,,,,TR,39.85598810849868,32.64558110126143,ZES,Operational,1,CCS (Type 2),2025-10-07 18:13:00+00:00
461893,ZES - BESA NOVA PLAZA,Yaşamkent Çankaya/Ankara,,,,TR,39.86187554288665,32.64312143230245,ZES,Operational,1,Type 2 (Socket Only),2025-10-07 18:10:00+00:00
461892,Graal Ourinhos,Rodovia Transbrasiliana BR 153 KM345 ,Ourinhos,São Paulo,19904-565,BR,-22.980560848885105,-49.902910758552025,(Unknown Operator),Operational,2,CCS (Type 2)|CCS (Type 2),2025-10-07 18:10:00+00:00
461891,Önizşarj - BESA NOVA PLAZA,Yaşamkent Mehmet Rıfat Börekçi 16 Çankaya/Ankara,,,,TR,39.86199744505296,32.64304577506425,(Unknown Operator),Operational,1,CCS (Type 2),2025-10-07 18:09:00+00:00
461890,Acropol - Yaşamkule,Alacaatli 3407 6/1 Çankaya/Ankara,,,,TR,39.848311750898944,32.63730331946476,(Unknown Operator),Operational,2,CCS (Type 2)|Type 2 (Socket Only),2025-10-07 17:56:00+00:00
461889,ZES - Liberica Cafe,Yaşamkent 3250 26 Çankaya/Ankara,,,,TR,39.85742624370323,32.63594683904353,ZES,Operational,1,Type 2 (Socket Only),2025-10-07 17:53:00+00:00
461888,EPSIS - ANKA CADDE,Yaşamkent 3256 Çankaya/Ankara,,,,TR,39.8612356586691,32.63757180975642,(Unknown Operator),Operational,2,CCS (Type 2)|Type 2 (Socket Only),2025-10-07 17:51:00+00:00
